iata_code,state,name,latitude,longitude,city,zip,color,in_degree,out_degree,net_degree,total_degree,degree_centrality,closeness_centrality,betweenness_centrality
03A,,,,,,,,0,1,-1,1,0.0008496176720475786,0.0,0.0
OME,AK,Nome Airport,64.5121994018555,-165.445007324219,Nome,99762.0,#71de56,54,66,-12,120,0.10195412064570944,0.3330266543599362,0.01146984456756946
05A,,,,,,,,2,2,0,4,0.0033984706881903144,0.2899366697759025,0.0
FAI,AK,Fairbanks International Airport,64.81510162,-147.8560028,Fairbanks,99709.0,#71de56,121,154,-33,275,0.2336448598130841,0.41814231841285454,0.09976430630863044
FYU,AK,Fort Yukon Airport,66.5715026855469,-145.25,Fort Yukon,99740.0,#71de56,20,17,3,37,0.03143585386576041,0.32397310305203564,0.0008780514135536628
08A,,,,,,,,2,1,1,3,0.002548853016142736,0.24468057269702267,0.0
HOM,AK,Homer Airport,59.6455993652344,-151.477005004883,Homer,99603.0,#71de56,29,53,-24,82,0.06966864910790145,0.3300915752532072,0.01597311013786929
1B1,,,,,,,,1,1,0,2,0.0016992353440951572,0.24180330518317714,0.0
HTO,NY,East Hampton Airport,40.95959854,-72.25180054,East Hampton,11937.0,#08601f,26,18,8,44,0.03738317757009346,0.3249770482117878,0.004593335236290066
1G4,,,,,,,,5,8,-3,13,0.011045029736618521,0.24986917669274225,4.7694989203983396e-05
BLD,NV,Boulder City Municipal Airport,35.9474983215,-114.861000061,Boulder City,89005.0,#c27b00,12,12,0,24,0.020390824129141887,0.3070866572706996,0.0021582574678614057
DQS,,,,,,,,5,8,-3,13,0.011045029736618521,0.2488021197104245,1.6553244716944367e-05
GCN,AZ,Grand Canyon National Park Airport,35.9524002075195,-112.147003173828,Grand Canyon,86023.0,#803dc3,17,14,3,31,0.026338147833474938,0.320703649718483,0.003129842105191773
HSH,NV,Henderson Executive Airport,35.9728012085,-115.134002686,Henderson,89052.0,#c27b00,4,2,2,6,0.005097706032285472,0.30397128538534474,3.0075256799312486e-05
KNB,,,,,,,,5,1,4,6,0.005097706032285472,0.24980965568828947,0.0
LAS,NV,McCarran International Airport,36.08010101,-115.1520004,Las Vegas,89119.0,#c27b00,173,177,-4,350,0.29736618521665253,0.44118676254919614,0.020233421372108925
PGA,AZ,Page Municipal Airport,36.92610168,-111.447998,Page,86040.0,#803dc3,16,16,0,32,0.027187765505522515,0.3293658714131405,0.0052067725268034465
VGT,NV,North Las Vegas Airport,36.21070098877,-115.19400024414,North Las Vegas,89032.0,#c27b00,9,8,1,17,0.014443500424808835,0.28818382373713636,0.00022385938502045123
1NY,,,,,,,,0,1,-1,1,0.0008496176720475786,0.0,0.0
HPN,NY,Westchester County Airport,41.0670013427734,-73.7076034545898,West Harrison,10604.0,#08601f,152,154,-2,306,0.2599830076465591,0.3806536967620469,0.05590113854404198
6B0,,,,,,,,2,1,1,3,0.002548853016142736,0.27189549768717636,1.5775168683628423e-05
PCT,NJ,Princeton Airport,40.3992004395,-74.6588973999,Princeton,8540.0,#bdcf6e,3,3,0,6,0.005097706032285472,0.2530038442893701,0.0008192741837601652
7AK,,,,,,,,5,5,0,10,0.008496176720475786,0.3162548053617127,8.106319047108634e-06
ANC,AK,Ted Stevens Anchorage International Airport,61.1744003295898,-149.996002197266,Anchorage,99502.0,#71de56,206,217,-11,423,0.35938827527612577,0.4704804551724716,0.2661039938963264
CDV,AK,Merle K (Mudhole) Smith Airport,60.4917984,-145.4779968,Eyak,99574.0,#71de56,13,16,-3,29,0.02463891248937978,0.3399354731213741,0.0012908650514959084
DRF,AK,Drift River Airport,60.5889015198,-152.162002563,Tyonek,99682.0,#71de56,2,1,1,3,0.002548853016142736,0.3141704417553743,0.0
DUT,AK,Unalaska Airport,53.900100708,-166.544006348,Unalaska,99685.0,#71de56,16,13,3,29,0.02463891248937978,0.3200185946229598,0.0022306463808966157
SDP,AK,Sand Point Airport,55.314998626709,-160.522994995117,Sand Point,99661.0,#71de56,14,13,1,27,0.022939677145284623,0.32327402422300844,0.0004770403271313863
A02,,,,,,,,1,1,0,2,0.0016992353440951572,0.25484834376171067,0.0
ADQ,AK,Kodiak Airport,57.75,-152.4940033,Kodiak,99615.0,#71de56,44,50,-6,94,0.07986406117247238,0.3489853359665355,0.03378293589847254
A03,,,,,,,,3,1,2,4,0.0033984706881903144,0.2567827949508911,0.0
A04,,,,,,,,1,1,0,2,0.0016992353440951572,0.25484834376171067,0.0
A27,,,,,,,,1,1,0,2,0.0016992353440951572,0.28985653249846305,0.0
A29,,,,,,,,1,1,0,2,0.0016992353440951572,0.25484834376171067,0.0
A40,,,,,,,,1,1,0,2,0.0016992353440951572,0.24269866572076815,0.0
BRW,AK,Wiley Post Will Rogers Memorial Airport,71.285402,-156.766008,Barrow,99723.0,#71de56,28,45,-17,73,0.06202209005947324,0.3265963670443598,0.0023272312167467194
A52,,,,,,,,1,1,0,2,0.0016992353440951572,0.24462349768589672,0.0
A63,,,,,,,,2,1,1,3,0.002548853016142736,0.29001685137705735,0.0
A72,,,,,,,,1,1,0,2,0.0016992353440951572,0.24462349768589672,0.0
A82,,,,,,,,0,1,-1,1,0.0008496176720475786,0.0,0.0
BVU,AK,Beluga Airport,61.1721992493,-151.044006348,Anchorage,99695.0,#71de56,5,3,2,8,0.006796941376380629,0.3151144635154565,0.0010016441324858536
A83,,,,,,,,1,1,0,2,0.0016992353440951572,0.24462349768589672,0.0
A89,,,,,,,,1,1,0,2,0.0016992353440951572,0.24462349768589672,0.0
AA2,,,,,,,,3,2,1,5,0.004248088360237893,0.26475661059819217,2.3867114511783597e-07
AKN,AK,King Salmon Airport,58.67679977,-156.6490021,King Salmon,99613.0,#71de56,40,47,-7,87,0.07391673746813934,0.34204205302656204,0.014227035195006189
EGX,AK,Egegik Airport,58.1855010986,-157.375,Egegik,99579.0,#71de56,14,15,-1,29,0.02463891248937978,0.3200185946229598,0.0010245928946614083
AA8,,,,,,,,1,1,0,2,0.0016992353440951572,0.25392274445022744,0.0
SCC,AK,Deadhorse Airport,70.19470215,-148.4649963,Deadhorse,99734.0,#71de56,31,31,0,62,0.052676295666949875,0.34725196509252954,0.004179717951024255
ABE,PA,Lehigh Valley International Airport,40.652099609375,-75.440803527832,Allentown,18109.0,#a2d39a,58,57,1,115,0.09770603228547153,0.355250994098726,0.0005032414554741546
AGS,GA,Augusta Regional At Bush Field,33.3698997497559,-81.9645004272461,Augusta,30906.0,#019f43,44,38,6,82,0.06966864910790145,0.3429368654609023,0.00034576462078307336
ALO,IA,Waterloo Regional Airport,42.5570983886719,-92.4002990722656,Waterloo,50703.0,#3d4b9f,16,16,0,32,0.027187765505522515,0.32690178758710703,0.00010254148158582134
AND,SC,Anderson Regional Airport,34.4945983887,-82.7093963623,Anderson,29626.0,#4e6500,3,2,1,5,0.004248088360237893,0.2847409542708225,1.3321630538573506e-07
ATL,GA,Hartsfield Jackson Atlanta International Airport,33.6367,-84.428101,Atlanta,30349.0,#019f43,218,232,-14,450,0.3823279524214104,0.45516533618899274,0.023369633507959526
AVL,NC,Asheville Regional Airport,35.4361991882324,-82.5418014526367,Fletcher,28732.0,#ff588c,43,44,-1,87,0.07391673746813934,0.34805872372367713,0.00033307673475015706
AVP,PA,Wilkes Barre Scranton International Airport,41.3385009766,-75.7233963013,Pittston,18641.0,#a2d39a,48,44,4,92,0.07816482582837724,0.345421915210619,0.000647952724760151
BHM,AL,Birmingham-Shuttlesworth International Airport,33.56290054,-86.75350189,Birmingham,35212.0,#8d4b4c,122,119,3,241,0.20475785896346643,0.42201244852291314,0.0023946698312451373
BNA,TN,Nashville International Airport,36.1245002746582,-86.6781997680664,Nashville,37217.0,#917c00,154,156,-2,310,0.26338147833474934,0.39874560250168795,0.009506341100014462
BOS,MA,General Edward Lawrence Logan International Airport,42.36429977,-71.00520325,Winthrop,2152.0,#5bdac9,158,164,-6,322,0.2735768903993203,0.44587624769533984,0.025251743030167893
BTV,VT,Burlington International Airport,44.4719009399,-73.1532974243,South Burlington,5403.0,#a74600,49,55,-6,104,0.08836023789294817,0.35286034137935374,0.0009718495911336924
CAE,SC,Columbia Metropolitan Airport,33.9388008117676,-81.119499206543,West Columbia,29170.0,#4e6500,79,78,1,157,0.13338997451146983,0.3742687132688934,0.0007277661003801792
CHA,TN,Lovell Field,35.0353012084961,-85.2037963867188,Chattanooga,37421.0,#917c00,49,36,13,85,0.07221750212404418,0.35657971253976173,0.00025354800347081124
CHS,SC,Charleston Air Force Base-International Airport,32.89860153,-80.04049683,Charleston Afb,29404.0,#4e6500,116,111,5,227,0.19286321155480035,0.42595488813137256,0.003882165944468351
CLT,NC,Charlotte Douglas International Airport,35.2140007019043,-80.9430999755859,Charlotte,28208.0,#ff588c,159,167,-8,326,0.27697536108751064,0.4038124507429493,0.008537786558680416
DAB,FL,Daytona Beach International Airport,29.179899,-81.058098,Daytona Beach,32114.0,#ad007d,45,44,1,89,0.07561597281223449,0.3400456986314654,0.00010617608730162496
DSM,IA,Des Moines International Airport,41.5340003967285,-93.6631011962891,Des Moines,50315.0,#3d4b9f,121,120,1,241,0.20475785896346643,0.39116036351340516,0.0021509072434585004
DTW,MI,Detroit Metropolitan Wayne County Airport,42.2123985290527,-83.353401184082,Romulus,48174.0,#cd0033,175,172,3,347,0.29481733220050976,0.4466358324443949,0.013040346388616666
EWR,NJ,Newark Liberty International Airport,40.6925010681152,-74.168701171875,Newark,7114.0,#bdcf6e,169,184,-15,353,0.29991503823279525,0.4487380978089171,0.01764876166616164
FWA,IN,Fort Wayne International Airport,40.97850037,-85.19509888,Fort Wayne,46809.0,#d9c837,64,53,11,117,0.0994052676295667,0.36616652743695505,0.0014072223190157397
GPT,MS,Gulfport Biloxi International Airport,30.4073009490967,-89.0700988769531,Gulfport,39501.0,#de3f20,81,76,5,157,0.13338997451146983,0.355250994098726,0.0004338052502138958
GSO,NC,Piedmont Triad International Airport,36.0978012084961,-79.9373016357422,Greensboro,27410.0,#ff588c,100,106,-6,206,0.1750212404418012,0.4176427457504736,0.003429161824194574
GSP,SC,Greenville Spartanburg International Airport,34.8956985474,-82.2189025879,Greer,29651.0,#4e6500,123,119,4,242,0.205607476635514,0.3946936148210159,0.003780090129563573
IAD,VA,Washington Dulles International Airport,38.94449997,-77.45580292,Sterling,20166.0,#efbe69,173,179,-6,352,0.2990654205607477,0.411094055107581,0.023501225894214408
IFP,AZ,Laughlin Bullhead International Airport,35.15739822,-114.5599976,Bullhead City,86429.0,#803dc3,135,133,2,268,0.22769753610875107,0.38343727041295766,0.008820780514803827
IND,IN,Indianapolis International Airport,39.7173,-86.294403,Indianapolis,46231.0,#d9c837,150,156,-6,306,0.2599830076465591,0.4413724472135687,0.008138438811286553
ISP,NY,Long Island Mac Arthur Airport,40.79520035,-73.10019684,Ronkonkoma,11779.0,#08601f,75,79,-4,154,0.13084112149532712,0.37668855408744223,0.0010326104609787179
JAN,MS,Jackson-Medgar Wiley Evers International Airport,32.3111991882,-90.0758972168,Pearl,39208.0,#de3f20,82,77,5,159,0.135089209855565,0.38134579439252336,0.0016029399635434946
JFK,NY,John F Kennedy International Airport,40.63980103,-73.77890015,Jamaica,11430.0,#08601f,118,112,6,230,0.19541206457094307,0.436958722741433,0.010496678596085982
LAN,MI,Capital City Airport,42.7787017822266,-84.58740234375,Lansing,48906.0,#cd0033,59,58,1,117,0.0994052676295667,0.3638795748020261,0.0016431882013684738
LGA,NY,La Guardia Airport,40.77719879,-73.87259674,East Elmhurst,11369.0,#08601f,135,145,-10,280,0.23789294817332202,0.4019551301569334,0.005933388578082847
LRD,TX,Laredo International Airport,27.5438003540039,-99.4616012573242,Laredo,78041.0,#ff846c,91,112,-21,203,0.17247238742565846,0.3713530221598581,0.00883576508024409
MCO,FL,Orlando International Airport,28.4293994903564,-81.3089981079102,Orlando,32827.0,#ad007d,144,151,-7,295,0.2506372132540357,0.40319143966914234,0.00931740613577859
MEM,TN,Memphis International Airport,35.0424003601074,-89.9766998291016,Memphis,38118.0,#917c00,181,181,0,362,0.30756159728122345,0.4400759272259501,0.02082864158097767
MKE,WI,General Mitchell International Airport,42.9472007751465,-87.896598815918,Milwaukee,53207.0,#945500,144,137,7,281,0.2387425658453696,0.4047475625547816,0.005870326789461772
MLB,FL,Melbourne International Airport,28.1028003692627,-80.6453018188477,Melbourne,32901.0,#ad007d,20,18,2,38,0.03228547153780799,0.32327402422300844,5.4979141253789654e-05
MYR,SC,Myrtle Beach International Airport,33.6796989441,-78.9282989502,Myrtle Beach,29577.0,#4e6500,79,80,-1,159,0.135089209855565,0.36451196891881793,0.0006388605534643143
OAJ,NC,Albert J Ellis Airport,34.8292007446,-77.6120986938,Richlands,28574.0,#ff588c,24,19,5,43,0.03653355989804588,0.3265963670443598,2.0855554030655503e-05
OMA,NE,Eppley Airfield,41.3032,-95.894096,Omaha,68110.0,#b2a5ff,120,117,3,237,0.20135938827527614,0.4292676768642813,0.004923219957340678
ORD,IL,Chicago O'Hare International Airport,41.9786,-87.9048,Amf Ohare,60666.0,#852b8a,204,215,-11,419,0.35598980458793544,0.46076490974492057,0.035043720645297524
PGD,FL,Charlotte County Airport,26.92020035,-81.9905014,Punta Gorda,33982.0,#ad007d,42,38,4,80,0.06796941376380629,0.3306118961473642,0.00017682600680896433
PHF,VA,Newport News Williamsburg International Airport,37.13190079,-76.49299622,Newport News,23602.0,#efbe69,46,50,-4,96,0.08156329651656755,0.350501649257834,0.00036219581760838475
PHL,PA,Philadelphia International Airport,39.871898651123,-75.241096496582,Philadelphia,19113.0,#a2d39a,155,158,-3,313,0.2659303313508921,0.4436129164887645,0.0073269260110238
PIE,FL,St Petersburg Clearwater International Airport,27.91020012,-82.68740082,Clearwater,33762.0,#ad007d,67,71,-4,138,0.11724723874256585,0.3568223663080773,0.0007838675353835791
PSM,NH,Portsmouth International at Pease Airport,43.0778999329,-70.8233032227,Portsmouth,3801.0,#7b3b72,22,30,-8,52,0.044180118946474084,0.3391658908730399,0.0010798438695036393
RIC,VA,Richmond International Airport,37.505199432373,-77.3197021484375,Richmond,23250.0,#efbe69,123,118,5,241,0.20475785896346643,0.39618471272362643,0.005171351396130257
ROC,NY,Greater Rochester International Airport,43.1189002990723,-77.6724014282227,Rochester,14624.0,#08601f,101,112,-11,213,0.18096856414613424,0.3920377325530614,0.0024344444711440964
SAT,TX,San Antonio International Airport,29.5337009429932,-98.4698028564453,San Antonio,78216.0,#ff846c,145,148,-3,293,0.24893797790994054,0.3988972744691667,0.004397878339811316
SAV,GA,Savannah Hilton Head International Airport,32.12760162,-81.20210266,Savannah,31408.0,#019f43,75,83,-8,158,0.13423959218351741,0.3678361748787931,0.0012840718095286415
SDF,KY,Louisville International Standiford Field,38.1744,-85.736,Louisville,40213.0,#72a4ff,192,159,33,351,0.2982158028887001,0.4526115384460247,0.019783705383788187
SFB,FL,Orlando Sanford International Airport,28.7775993347168,-81.2375030517578,Sanford,32773.0,#ad007d,90,92,-2,182,0.1546304163126593,0.3557330171572046,0.0013960888091675953
STL,MO,St Louis Lambert International Airport,38.748697,-90.370003,Saint Louis,63134.0,#045494,156,141,15,297,0.25233644859813087,0.444364802787898,0.012574752234969441
TRI,TN,Tri-Cities Regional TN/VA Airport,36.475201,-82.407401,Blountville,37617.0,#917c00,22,26,-4,48,0.04078164825828377,0.33612209441648694,4.498217680099681e-05
TYS,TN,McGhee Tyson Airport,35.81100082,-83.9940033,Louisville,37777.0,#917c00,90,85,5,175,0.14868309260832627,0.3788659445734968,0.0012222538294762
UTM,MS,Tunica Municipal Airport,34.680999755859,-90.346702575684,Tunica,38676.0,#de3f20,96,93,3,189,0.16057774001699235,0.37453604806408547,0.001093308576703842
XNA,AR,Northwest Arkansas Regional Airport,36.281898,-94.306801,Bentonville,72712.0,#aabc00,52,56,-4,108,0.09175870858113849,0.358898334900561,0.00021615939941928224
ABI,TX,Abilene Regional Airport,32.4113006592,-99.6819000244,Abilene,79602.0,#ff846c,31,13,18,44,0.03738317757009346,0.3523860667269621,0.00011294777331241863
AMA,TX,Rick Husband Amarillo International Airport,35.219398,-101.706001,Amarillo,79111.0,#ff846c,63,60,3,123,0.10450297366185217,0.3629979005120939,0.00030272796912767143
AUS,TX,Austin Robert Mueller Municipal,30.2987223546,-97.6997852325,Austin,78723.0,#ff846c,149,149,0,298,0.2531860662701784,0.43227573560570454,0.009227465664196847
AUS,TX,Austin Bergstrom International Airport,30.1944999694824,-97.6698989868164,Austin,78719.0,#ff846c,149,149,0,298,0.2531860662701784,0.43227573560570454,0.009227465664196847
BPT,TX,Southeast Texas Regional Airport,29.9507999420166,-94.0206985473633,Beaumont,77705.0,#ff846c,6,8,-2,14,0.0118946474086661,0.31520917781167396,6.151482678351472e-06
DFW,TX,Dallas Fort Worth International Airport,32.896801,-97.038002,Dallas,75261.0,#ff846c,193,200,-7,393,0.3338997451146984,0.4438006494199912,0.02080354729181255
ENV,UT,Wendover Airport,40.7187004089,-114.03099823,Wendover,84083.0,#8e8953,72,73,-1,145,0.1231945624468989,0.3547702755681459,0.0023578718017201504
FLG,AZ,Flagstaff Pulliam Airport,35.13850021,-111.6709976,Flagstaff,86001.0,#803dc3,10,8,2,18,0.015293118096856415,0.3196284469915999,0.00026445205684575405
LBB,TX,Lubbock Preston Smith International Airport,33.663601,-101.822998,Lubbock,79403.0,#ff846c,70,63,7,133,0.11299915038232795,0.3730704142936461,0.001975078715330987
MAF,TX,Midland International Airport,31.9424991607666,-102.202003479004,Midland,79706.0,#ff846c,56,56,0,112,0.0951571792693288,0.369781711769901,0.0010366060753024622
MGM,AL,Montgomery Regional (Dannelly Field) Airport,32.30059814,-86.39399719,Montgomery,36108.0,#8d4b4c,45,40,5,85,0.07221750212404418,0.34805872372367713,0.00041749156434075753
SJT,TX,San Angelo Regional Mathis Field,31.3577003479004,-100.496002197266,San Angelo,76904.0,#ff846c,9,11,-2,20,0.016992353440951572,0.3137944148951045,4.176611152663113e-05
ABL,AK,Ambler Airport,67.1063,-157.856989,Ambler,99786.0,#71de56,26,13,13,39,0.03313508920985556,0.32751434559008097,0.00017688183659915696
BKC,AK,Buckland Airport,65.9815979004,-161.149002075,Buckland,99727.0,#71de56,20,19,1,39,0.03313508920985556,0.32178611064112894,0.0002649076390010268
DRG,AK,Deering Airport,66.0696029663,-162.76600647,Deering,99736.0,#71de56,15,13,2,28,0.0237892948173322,0.3212931784863478,4.663462698158389e-05
IAN,AK,Bob Baker Memorial Airport,66.9759979248,-160.43699646,Kiana,99749.0,#71de56,19,15,4,34,0.02888700084961767,0.3220825966153069,8.441105284021053e-05
NUI,AK,Nuiqsut Airport,70.2099990845,-151.005996704,Nuiqsut,99789.0,#71de56,14,13,1,27,0.022939677145284623,0.3235732596665965,3.825401405200839e-05
OBU,AK,Kobuk Airport,66.9123001099,-156.897003174,Kobuk,99751.0,#71de56,13,13,0,26,0.022090059473237042,0.2921172519719886,0.00012245474052315118
ORV,AK,Robert (Bob) Curtis Memorial Airport,66.81790161,-161.0189972,Noorvik,99763.0,#71de56,21,20,1,41,0.034834324553950725,0.3218848786308899,0.0002939131386380555
OTZ,AK,Ralph Wien Memorial Airport,66.88469696,-162.598999,Kotzebue,99752.0,#71de56,39,50,-11,89,0.07561597281223449,0.3265963670443598,0.003205849436250495
RDB,AK,Red Dog Airport,68.0320968628,-162.899002075,Noatak,99761.0,#71de56,11,11,0,22,0.01869158878504673,0.3160641755815067,0.00019815223816318494
SHG,AK,Shungnak Airport,66.88809967041,-157.16200256348,Shungnak,99773.0,#71de56,18,15,3,33,0.028037383177570093,0.32437393584269697,0.0003682755313717652
WLK,AK,Selawik Airport,66.60009766,-159.9859924,Selawik,99770.0,#71de56,14,13,1,27,0.022939677145284623,0.29400082270239397,0.00013983542301120602
WTK,AK,Noatak Airport,67.5661010742188,-162.975006103516,Noatak,99761.0,#71de56,17,11,6,28,0.0237892948173322,0.29607592732338767,4.938061479590926e-05
ABQ,NM,Albuquerque International Sunport,35.040199,-106.609001,Albuquerque,87106.0,#ff7abf,113,110,3,223,0.18946474086661003,0.3889840261793172,0.009130489455868036
AFW,TX,Fort Worth Alliance Airport,32.9875984192,-97.3188018799,Fort Worth,76177.0,#ff846c,51,52,-1,103,0.0875106202209006,0.3606261810795871,0.0004780584133366401
ALB,NY,Albany International Airport,42.7482986450195,-73.8016967773438,Latham,12110.0,#08601f,107,117,-10,224,0.1903143585386576,0.3941003136337614,0.005116923620811099
BDL,CT,Bradley International Airport,41.9388999939,-72.6831970215,Windsor Locks,6096.0,#5f3fa3,112,125,-13,237,0.20135938827527614,0.39618471272362643,0.0026757449644113137
BGR,ME,Bangor International Airport,44.8073997497559,-68.8281021118164,Bangor,4401.0,#009bd7,47,54,-7,101,0.08581138487680544,0.3547702755681459,0.0006834590829228944
BKG,MO,Branson Airport,36.532082,-93.200544,Hollister,65672.0,#045494,15,16,-1,31,0.026338147833474938,0.33430058481971286,0.00019647400925337704
BOI,ID,Boise Air Terminal/Gowen Field,43.5644,-116.223,Boise,83705.0,#8bd976,91,93,-2,184,0.15632965165675447,0.38484437966217955,0.003567123876901009
BUF,NY,Buffalo Niagara International Airport,42.94049835,-78.73220062,Buffalo,14225.0,#08601f,129,131,-2,260,0.22090059473237045,0.39365650697426396,0.0077896498931131685
BUR,CA,Bob Hope Airport,34.2006988525391,-118.359001159668,Sun Valley,91352.0,#c479ff,176,167,9,343,0.29141886151231944,0.4481627925553159,0.05297505765293872
BWI,MD,Baltimore/Washington International Thurgood Marshall Airport,39.1754,-76.668297,Baltimore,21240.0,#b31800,166,159,7,325,0.27612574341546303,0.4466358324443949,0.011096743478241083
CAK,OH,Akron Canton Regional Airport,40.9160995483398,-81.4421997070312,Canton,44720.0,#ff6539,81,95,-14,176,0.14953271028037385,0.3724080023364486,0.0014416082009595316
CLE,OH,Cleveland Hopkins International Airport,41.4117012024,-81.8498001099,Cleveland,44135.0,#ff6539,149,148,1,297,0.25233644859813087,0.40427946591343067,0.007040156180626632
CMH,OH,John Glenn Columbus International Airport,39.998001,-82.891899,Columbus,43219.0,#ff6539,137,136,1,273,0.23194562446898895,0.433705928279338,0.004203292430713543
CNM,NM,Cavern City Air Terminal,32.3375015258789,-104.263000488281,Carlsbad,88220.0,#ff7abf,2,2,0,4,0.0033984706881903144,0.27561128372652804,0.0
COS,CO,City of Colorado Springs Municipal Airport,38.805801,-104.700996,Colorado Springs,80916.0,#7fac00,60,44,16,104,0.08836023789294817,0.3740017598357487,0.0003505284998544188
CRP,TX,Corpus Christi International Airport,27.7703990936279,-97.5011978149414,Corpus Christi,78406.0,#ff846c,42,41,1,83,0.07051826677994902,0.3622455732571465,5.5629114493643745e-05
DAL,TX,Dallas Love Field,32.847099,-96.851799,Dallas,75235.0,#ff846c,131,127,4,258,0.21920135938827529,0.4022634961946449,0.004821594409419482
DCA,VA,Ronald Reagan Washington National Airport,38.8521,-77.037697,Arlington,22202.0,#efbe69,144,157,-13,301,0.25573491928632114,0.4027269334022424,0.005244767186122793
DEN,CO,Denver International Airport,39.861698150635,-104.672996521,Denver,80249.0,#7fac00,213,216,-3,429,0.3644859813084112,0.45915102214511355,0.050527313656202465
DRO,CO,Durango La Plata County Airport,37.1515007019,-107.753997803,Durango,81303.0,#7fac00,20,16,4,36,0.03058623619371283,0.34026636423732615,0.0010357644472410758
ECP,FL,Northwest Florida Beaches International Airport,30.357106,-85.795414,Panama City Beach,32413.0,#ad007d,44,50,-6,94,0.07986406117247238,0.35357415191484803,1.107662467399277e-05
ELP,TX,El Paso International Airport,31.80719948,-106.3779984,El Paso,79925.0,#ff846c,109,116,-7,225,0.1911639762107052,0.3876898094563546,0.0035745089247130324
EYW,FL,Key West International Airport,24.5561008453369,-81.7595977783203,Key West,33040.0,#ad007d,50,48,2,98,0.08326253186066271,0.3458776169457254,0.0019323397559871446
FAT,CA,Fresno Yosemite International Airport,36.7761993408203,-119.718002319336,Fresno,93727.0,#c479ff,36,39,-3,75,0.0637213254035684,0.3602545292268771,0.0004703533738769383
FLL,FL,Fort Lauderdale Hollywood International Airport,26.072599,-80.152702,Fort Lauderdale,33315.0,#ad007d,135,144,-9,279,0.23704333050127444,0.4365948936633802,0.007510121158298001
FMN,NM,Four Corners Regional Airport,36.7411994934,-108.230003357,Farmington,87401.0,#ff7abf,9,10,-1,19,0.016142735768903994,0.3181738272389075,0.00018749670419052614
FNL,CO,Northern Colorado Regional Airport,40.451804,-105.011,Loveland,80538.0,#7fac00,20,19,1,39,0.03313508920985556,0.33894664983175155,0.00010098220600447048
GEG,WA,Spokane International Airport,47.6198997497559,-117.533996582031,Spokane,99224.0,#77471b,94,97,-3,191,0.1622769753610875,0.3864041763373026,0.0062879634939954744
GRR,MI,Gerald R. Ford International Airport,42.88079834,-85.52279663,Grand Rapids,49512.0,#cd0033,99,106,-7,205,0.17417162276975362,0.39101451699457096,0.00311776920363115
GUP,NM,Gallup Municipal Airport,35.511100769,-108.789001465,Gallup,87301.0,#ff7abf,4,4,0,8,0.006796941376380629,0.2761192560767349,0.0008362291061108907
HOU,TX,William P Hobby Airport,29.64539909,-95.27890015,Houston,77061.0,#ff846c,120,117,3,237,0.20135938827527614,0.3988972744691667,0.002106294524904955
HRL,TX,Valley International Airport,26.2285003662109,-97.6544036865234,Harlingen,78550.0,#ff846c,41,44,-3,85,0.07221750212404418,0.36274677778603914,3.7333497686849675e-05
IAH,TX,George Bush Intercontinental Houston Airport,29.9843997955322,-95.3414001464844,Houston,77032.0,#ff846c,171,176,-5,347,0.29481733220050976,0.4365948936633802,0.014188039654573433
ICT,KS,Wichita Eisenhower National Airport,37.649899,-97.433098,Wichita,67209.0,#f1a800,97,99,-2,196,0.16652506372132542,0.3841395364759851,0.0038452519995673
JAC,WY,Jackson Hole Airport,43.6072998046875,-110.737998962402,Jackson,83001.0,#db9d83,38,35,3,73,0.06202209005947324,0.3656558349300695,4.585688159494824e-05
JAX,FL,Jacksonville International Airport,30.4941005706787,-81.6878967285156,Jacksonville,32218.0,#ad007d,103,114,-11,217,0.18436703483432457,0.3923310641898388,0.001960374048901882
LAM,NM,Los Alamos Airport,35.8797988892,-106.268997192,Los Alamos,87544.0,#ff7abf,2,2,0,4,0.0033984706881903144,0.27561128372652804,0.0
LAR,WY,Laramie Regional Airport,41.3120994567871,-105.675003051758,Laramie,82070.0,#db9d83,13,11,2,24,0.020390824129141887,0.3299877075454497,1.6571946556649123e-05
LAX,CA,Los Angeles International Airport,33.94250107,-118.4079971,Los Angeles,90045.0,#c479ff,176,190,-14,366,0.3109600679694138,0.4477800745428861,0.029858752408035216
LCK,OH,Rickenbacker International Airport,39.813801,-82.927803,Columbus,43217.0,#ff6539,55,44,11,99,0.08411214953271028,0.3946936148210159,0.0014576971807965708
LGB,CA,Long Beach /Daugherty Field/ Airport,33.81769943,-118.1520004,Long Beach,90846.0,#c479ff,54,60,-6,114,0.09685641461342397,0.4066308393095926,0.003777979880694296
LGU,UT,Logan-Cache Airport,41.7911987305,-111.851997375,Logan,84341.0,#8e8953,9,9,0,18,0.015293118096856415,0.3262915166706407,8.478802132533227e-06
LIT,AR,Bill & Hillary Clinton National Airport/Adams Field,34.7294006348,-92.2242965698,Little Rock,72206.0,#aabc00,102,109,-7,211,0.17926932880203908,0.39072314999233954,0.0006824172813030526
MCI,MO,Kansas City International Airport,39.2976,-94.713898,Kansas City,64153.0,#045494,162,149,13,311,0.26423109600679695,0.43714086476841985,0.011853437141722219
MDW,IL,Chicago Midway International Airport,41.785999,-87.752403,Palatine,60038.0,#852b8a,129,133,-4,262,0.22259983007646558,0.40210925405653347,0.006392104612783721
MHT,NH,Manchester-Boston Regional Airport,42.932598,-71.435699,Manchester,3103.0,#7b3b72,97,95,2,192,0.1631265930331351,0.3917448392153303,0.0011514489471819455
MSN,WI,Dane County Regional Truax Field,43.1399002075195,-89.3375015258789,Madison,53704.0,#945500,68,61,7,129,0.10960067969413764,0.37982648843876826,0.0006963059469593497
MSP,MN,Minneapolis-St Paul International/Wold-Chamberlain Airport,44.882,-93.221802,Minneapolis,55450.0,#02b4aa,201,211,-10,412,0.3500424808836024,0.4615761155719363,0.03847571948623368
MSY,LA,Louis Armstrong New Orleans International Airport,29.9934005737305,-90.2580032348633,Kenner,70062.0,#e67700,141,143,-2,284,0.2412914188615123,0.4018011243599384,0.004365874856028565
OAK,CA,Metropolitan Oakland International Airport,37.721298,-122.221001,Oakland,94621.0,#c479ff,131,136,-5,267,0.2268479184367035,0.4351456160080661,0.015126034003802757
OKC,OK,Will Rogers World Airport,35.3931007385254,-97.600700378418,Oklahoma City,73159.0,#007667,130,124,6,254,0.21580288870008496,0.39618471272362643,0.0027015321420476818
ONT,CA,Ontario International Airport,34.0559997558594,-117.600997924805,Ontario,91761.0,#c479ff,115,111,4,226,0.19201359388275277,0.42578194664207847,0.010397979585336673
PDX,OR,Portland International Airport,45.58869934,-122.5979996,Portland,97218.0,#ad0040,132,132,0,264,0.22429906542056074,0.4380538573848953,0.017709392933663238
PHX,AZ,Phoenix Sky Harbor International Airport,33.4342994689941,-112.012001037598,Phoenix,85034.0,#803dc3,146,153,-7,299,0.254035683942226,0.4342446934076353,0.01786911604322866
PIT,PA,Pittsburgh International Airport,40.49150085,-80.23290253,Imperial,15126.0,#a2d39a,144,150,-6,294,0.2497875955819881,0.40443537777841854,0.006101916113832625
PSP,CA,Palm Springs International Airport,33.8297004699707,-116.50700378418,Palm Springs,92262.0,#c479ff,35,42,-7,77,0.06542056074766356,0.3666786484543494,0.0003335579987604897
PVD,RI,Theodore Francis Green State Airport,41.732601,-71.420403,Warwick,2889.0,#9f2026,109,110,-1,219,0.1860662701784197,0.39874560250168795,0.004051742455290307
PWM,ME,Portland International Jetport,43.646198,-70.309303,Portland,4102.0,#009bd7,70,75,-5,145,0.1231945624468989,0.3724080023364486,0.003317226034241825
RDU,NC,Raleigh Durham International Airport,35.8776016235352,-78.7874984741211,Raleigh,27617.0,#ff588c,138,136,2,274,0.23279524214103653,0.4022634961946449,0.0033510304201824267
RNO,NV,Reno Tahoe International Airport,39.4990997314453,-119.767997741699,Reno,89502.0,#c27b00,98,94,4,192,0.1631265930331351,0.38826395208420555,0.0023072501641713816
RSW,FL,Southwest Florida International Airport,26.5361995697021,-81.7552032470703,Fort Myers,33913.0,#ad007d,112,107,5,219,0.1860662701784197,0.39277188561027687,0.0015798843954789078
SAN,CA,San Diego International Airport,32.7336006165,-117.190002441,San Diego,92101.0,#c479ff,121,134,-13,255,0.21665250637213254,0.429619391470479,0.004970359806382005
SBA,CA,Santa Barbara Municipal Airport,34.42620087,-119.8399963,Goleta,93117.0,#c479ff,35,34,1,69,0.05862361937128292,0.35865285040336503,0.001732286306863015
SEA,WA,Seattle Tacoma International Airport,47.449001,-122.308998,Seattle,98158.0,#77471b,148,164,-16,312,0.2650807136788445,0.4530025635332351,0.06876171480419041
SFO,CA,San Francisco International Airport,37.6189994812012,-122.375,South San Francisco,94080.0,#c479ff,141,153,-12,294,0.2497875955819881,0.43586905011614263,0.013033030540832694
SHV,LA,Shreveport Regional Airport,32.446602,-93.8256,Shreveport,71109.0,#e67700,53,32,21,85,0.07221750212404418,0.3554918422303184,0.00045436970821390987
SJC,CA,Norman Y. Mineta San Jose International Airport,37.362598,-121.929001,San Jose,95110.0,#c479ff,119,109,10,228,0.19371282922684793,0.429971682894399,0.003997338113592577
SJU,,,,,,,,90,95,-5,185,0.15717926932880205,0.38484437966217955,0.008193925018866708
SLC,UT,Salt Lake City International Airport,40.7883987426758,-111.977996826172,Salt Lake City,84116.0,#8e8953,149,147,2,296,0.25148683092608326,0.4375056047473672,0.018231151676182084
SMF,CA,Sacramento International Airport,38.6954002380371,-121.591003417969,Sacramento,95837.0,#c479ff,115,110,5,225,0.1911639762107052,0.3917448392153303,0.00962922801694194
SNA,CA,John Wayne Airport-Orange County Airport,33.67570114,-117.8679962,Santa Ana,92707.0,#c479ff,97,101,-4,198,0.16822429906542055,0.38912836162502384,0.0023412103606629295
STT,,,,,,,,32,42,-10,74,0.06287170773152082,0.3439491422038174,0.0023881718469022403
TPA,FL,Tampa International Airport,27.9755001068115,-82.533203125,Tampa,33607.0,#ad007d,136,138,-2,274,0.23279524214103653,0.4376882030798995,0.00667208910305425
TUL,OK,Tulsa International Airport,36.1983985900879,-95.8880996704102,Tulsa,74115.0,#007667,101,100,1,201,0.1707731520815633,0.38683177225357407,0.0015387806082355117
TUS,AZ,Tucson International Airport,32.1161003112793,-110.94100189209,Tucson,85706.0,#803dc3,93,88,5,181,0.15378079864061173,0.38583551676947725,0.0017262593593010058
WRB,GA,Robins Air Force Base,32.6400985718,-83.5919036865,Warner Robins,31098.0,#019f43,3,1,2,4,0.0033984706881903144,0.30601136112618593,0.0
XWH,,,,,,,,2,2,0,4,0.0033984706881903144,0.2756837367453836,4.4624923250970105e-07
ABR,SD,Aberdeen Regional Airport,45.4491004943848,-98.4217987060547,Aberdeen,57401.0,#ce96be,4,3,1,7,0.00594732370433305,0.31520917781167396,8.422255605382074e-08
FSD,SD,Joe Foss Field Airport,43.5820007324,-96.741897583,Sioux Falls,57104.0,#ce96be,53,50,3,103,0.0875106202209006,0.3641322689511942,0.0020142409523198537
GFK,ND,Grand Forks International Airport,47.949299,-97.176102,Grand Forks,58203.0,#008654,45,45,0,90,0.07646559048428207,0.3482899151708533,0.0006237922784374437
ABY,GA,Southwest Georgia Regional Airport,31.5354995727539,-84.1945037841797,Albany,31721.0,#019f43,7,9,-2,16,0.013593882752761258,0.31730739321616924,1.9136646207576797e-07
PBI,FL,Palm Beach International Airport,26.6832008361816,-80.0955963134766,West Palm Beach,33406.0,#ad007d,113,113,0,226,0.19201359388275277,0.39116036351340516,0.0019412846279792948
PNS,FL,Pensacola Regional Airport,30.473400115967,-87.186599731445,Pensacola,32504.0,#ad007d,76,71,5,147,0.12489379779099405,0.37628307663417265,0.0002447425300250562
ACK,MA,Nantucket Memorial Airport,41.25310135,-70.06020355,Nantucket,2554.0,#5bdac9,67,63,4,130,0.11045029736618522,0.3378546825320358,0.020302267132317153
AGC,PA,Allegheny County Airport,40.3544006347656,-79.9301986694336,West Mifflin,15122.0,#a2d39a,5,5,0,10,0.008496176720475786,0.31865722715874784,1.0841168112177001e-05
BAF,MA,Westfield-Barnes Regional Airport,42.157799,-72.715599,Westfield,1085.0,#5bdac9,17,20,-3,37,0.03143585386576041,0.32884946208198157,0.002715966419001338
BDR,CT,Igor I Sikorsky Memorial Airport,41.163501739502,-73.1261978149414,Stratford,6615.0,#5f3fa3,4,5,-1,9,0.0076465590484282074,0.30980825246069105,7.454502335136551e-06
BED,MA,Laurence G Hanscom Field,42.47000122,-71.28900146,Hanscom Afb,1731.0,#5bdac9,55,52,3,107,0.09090909090909091,0.36732081771609076,0.004781306424768419
BHB,ME,Hancock County-Bar Harbor Airport,44.45000076,-68.3615036,Ellsworth,4605.0,#009bd7,7,8,-1,15,0.01274426508071368,0.31778816199376947,0.00010974036617727144
BVY,MA,Beverly Municipal Airport,42.5842018127,-70.9164962769,Danvers,1923.0,#5bdac9,8,8,0,16,0.013593882752761258,0.2866869695405793,0.0025538375846758227
CDW,NJ,Essex County Airport,40.8751983643,-74.2814025879,Fairfield,7004.0,#bdcf6e,1,0,1,1,0.0008496176720475786,0.24919108981603438,0.0
CON,NH,Concord Municipal Airport,43.20270157,-71.50229645,Concord,3301.0,#7b3b72,3,4,-1,7,0.00594732370433305,0.28160605117600407,4.910878792151699e-06
DAN,VA,Danville Regional Airport,36.5728988647461,-79.3360977172852,Ringgold,24586.0,#efbe69,1,0,1,1,0.0008496176720475786,0.24919108981603438,0.0
DXR,CT,Danbury Municipal Airport,41.3714981079,-73.4822006226,Danbury,6810.0,#5f3fa3,4,3,1,7,0.00594732370433305,0.2654267108528067,1.372556068946986e-06
ESN,MD,Easton Newnam Field,38.8041992188,-76.0690002441,Easton,21601.0,#b31800,1,0,1,1,0.0008496176720475786,0.24919108981603438,0.0
EWB,MA,New Bedford Regional Airport,41.6761016845703,-70.956901550293,New Bedford,2745.0,#5bdac9,4,3,1,7,0.00594732370433305,0.2738122544593836,0.0
FID,NY,Elizabeth Field,41.2513008118,-72.0316009521,Fishers Island,6390.0,#08601f,7,6,1,13,0.011045029736618521,0.2845864137257637,1.1836558823026515e-05
FOK,NY,Francis S Gabreski Airport,40.8437004089,-72.6317977905,Westhampton Beach,11978.0,#08601f,11,13,-2,24,0.020390824129141887,0.3261900263077571,0.001055057843132977
FRG,NY,Republic Airport,40.7288017273,-73.4133987427,Amityville,11701.0,#08601f,45,45,0,90,0.07646559048428207,0.355250994098726,0.008110683481690707
FRY,ME,Eastern Slopes Regional Airport,43.9911003113,-70.9478988647,Fryeburg,4037.0,#009bd7,1,1,0,2,0.0016992353440951572,0.2488611615043757,0.0
GAI,MD,Montgomery County Airpark,39.1683006287,-77.1660003662,Gaithersburg,20879.0,#b31800,2,3,-1,5,0.004248088360237893,0.2727440662105174,0.0
GED,DE,Sussex County Airport,38.68920135,-75.35890198,Georgetown,19947.0,#acd44a,2,1,1,3,0.002548853016142736,0.27331272728158434,0.0
GON,CT,Groton New London Airport,41.3301010131836,-72.0450973510742,Groton,6340.0,#5f3fa3,4,7,-3,11,0.009345794392523366,0.2632942341399546,0.0024950225771284474
HFD,CT,Hartford Brainard Airport,41.736698150635,-72.649398803711,Hartford,6114.0,#5f3fa3,4,3,1,7,0.00594732370433305,0.27395531206359436,0.0008278517199592679
HVN,CT,Tweed New Haven Airport,41.26369858,-72.88680267,East Haven,6512.0,#5f3fa3,8,10,-2,18,0.015293118096856415,0.3122062919260016,6.599774474225701e-05
HYA,MA,Barnstable Municipal Boardman Polando Field,41.66930008,-70.28040314,Hyannis,2601.0,#5bdac9,11,14,-3,25,0.021240441801189464,0.31943372969218375,0.0007307429242236471
ISS,ME,Wiscasset Airport,43.9613990784,-69.712600708,Wiscasset,4578.0,#009bd7,1,3,-2,4,0.0033984706881903144,0.2488611615043757,0.000802657511602772
LEB,NH,Lebanon Municipal Airport,43.6260986328,-72.3041992188,West Lebanon,3784.0,#7b3b72,7,7,0,14,0.0118946474086661,0.3164456652321784,1.6929571832652922e-05
LEW,ME,Auburn Lewiston Municipal Airport,44.048500061,-70.2835006714,Auburn,4210.0,#009bd7,2,2,0,4,0.0033984706881903144,0.2727440662105174,0.0
LUK,OH,Cincinnati Municipal Airport Lunken Field,39.10329819,-84.41860199,Cincinnati,45226.0,#ff6539,26,26,0,52,0.044180118946474084,0.3500336897795191,0.00061518589120021
MA5,,,,,,,,3,3,0,6,0.005097706032285472,0.25349309513643686,9.483411912017049e-07
MMU,NJ,Morristown Municipal Airport,40.7994003295898,-74.4149017333984,Florham Park,7932.0,#bdcf6e,14,16,-2,30,0.02548853016142736,0.3200185946229598,0.0010960712915253962
MTN,MD,Martin State Airport,39.325699,-76.413803,Middle River,21220.0,#b31800,5,3,2,8,0.006796941376380629,0.3025680711423656,3.98165081283228e-06
MVY,MA,Martha's Vineyard Airport,41.3931007385,-70.6143035889,West Tisbury,2575.0,#5bdac9,32,37,-5,69,0.05862361937128292,0.3375284630123718,0.005443195933075417
NAD,,,,,,,,3,1,2,4,0.0033984706881903144,0.27338397668911346,0.0
NJ5,,,,,,,,1,1,0,2,0.0016992353440951572,0.2488611615043757,0.0
NPT,RI,Newport State Airport,41.5323982239,-71.28150177,Middletown,2842.0,#9f2026,7,6,1,13,0.011045029736618521,0.31875408345879613,1.328362115043798e-05
NY1,,,,,,,,1,2,-1,3,0.002548853016142736,0.2488611615043757,0.0
NY2,,,,,,,,1,1,0,2,0.0016992353440951572,0.2488611615043757,0.0
OCE,MD,Ocean City Municipal Airport,38.310398101807,-75.124000549316,Berlin,21811.0,#b31800,1,0,1,1,0.0008496176720475786,0.24919108981603438,0.0
OWD,MA,Norwood Memorial Airport,42.1904983521,-71.1728973389,Norwood,2062.0,#5bdac9,5,7,-2,12,0.010195412064570943,0.2819088533815697,3.196739279243299e-05
OXC,CT,Waterbury Oxford Airport,41.47859954834,-73.135200500488,Oxford,6478.0,#5f3fa3,19,15,4,34,0.02888700084961767,0.3252794462095035,0.0075381482721452436
PNE,PA,Northeast Philadelphia Airport,40.081902,-75.010597,Philadelphia,19114.0,#a2d39a,12,7,5,19,0.016142735768903994,0.2986900981428195,0.00010579727123471218
PVC,MA,Provincetown Municipal Airport,42.0718994141,-70.2213973999,Provincetown,2657.0,#5bdac9,6,7,-1,13,0.011045029736618521,0.3161594617363398,5.593084545087133e-06
PYM,MA,Plymouth Municipal Airport,41.909,-70.728798,Plymouth,2360.0,#5bdac9,4,4,0,8,0.006796941376380629,0.2738122544593836,9.911319306955712e-06
RKD,ME,Knox County Regional Airport,44.06010056,-69.09919739,Owls Head,4854.0,#009bd7,4,5,-1,9,0.0076465590484282074,0.3137944148951045,9.06735856872044e-06
SEG,PA,Penn Valley Airport,40.820598602295,-76.863899230957,Selinsgrove,17870.0,#a2d39a,2,3,-1,5,0.004248088360237893,0.27331272728158434,1.0202369832531517e-06
TEB,NJ,Teterboro Airport,40.8501014709,-74.060798645,Teterboro,7608.0,#bdcf6e,93,93,0,186,0.15802888700084963,0.37668855408744223,0.024589451372454687
TTN,NJ,Trenton Mercer Airport,40.2766990661621,-74.8134994506836,Trenton,8628.0,#bdcf6e,26,28,-2,54,0.045879354290569246,0.3434985046116735,0.0005399975823991649
VT2,,,,,,,,1,1,0,2,0.0016992353440951572,0.2488611615043757,0.0
VWK,,,,,,,,3,3,0,6,0.005097706032285472,0.2737407816704357,3.2343405440307754e-07
WST,RI,Westerly State Airport,41.3496017456,-71.8033981323,Westerly,2891.0,#9f2026,7,6,1,13,0.011045029736618521,0.28305018477177846,4.341839858057364e-05
ZXU,,,,,,,,2,1,1,3,0.002548853016142736,0.252881826520241,5.2254320391056824e-06
ACT,TX,Waco Regional Airport,31.6112995147705,-97.2304992675781,Waco,76708.0,#ff846c,33,23,10,56,0.0475785896346644,0.33536966248143246,0.00010503872816042943
CKB,WV,North Central West Virginia Airport,39.2966003418,-80.2281036377,Bridgeport,26330.0,#ffad64,24,30,-6,54,0.045879354290569246,0.3287463744763132,0.0002737128579978801
CLL,TX,Easterwood Field,30.58860016,-96.36380005,College Station,77845.0,#ff846c,39,36,3,75,0.0637213254035684,0.3453081773392951,0.0005438849645327575
FOE,KS,Topeka Regional Airport - Forbes Field,38.9509010315,-95.6635971069,Topeka,66609.0,#f1a800,28,28,0,56,0.0475785896346644,0.3426007626852137,0.00011365850453609002
LEX,KY,Blue Grass Airport,38.0364990234375,-84.6059036254883,Lexington,40510.0,#72a4ff,85,97,-12,182,0.1546304163126593,0.3651465649649858,0.0038217612413674984
MHK,KS,Manhattan Regional Airport,39.140998840332,-96.6707992553711,Manhattan,66503.0,#f1a800,20,19,1,39,0.03313508920985556,0.3331324442755525,9.590715535493015e-05
SBN,IN,South Bend Regional Airport,41.7086982727051,-86.3172988891602,South Bend,46628.0,#d9c837,65,53,12,118,0.10025488530161428,0.3670636802868181,0.0012425167805968727
SWO,OK,Stillwater Regional Airport,36.161201477051,-97.08570098877,Stillwater,74075.0,#007667,15,15,0,30,0.02548853016142736,0.3262915166706407,0.0008551456939068376
TYR,TX,Tyler Pounds Regional Airport,32.3540992736816,-95.4023971557617,Tyler,75704.0,#ff846c,10,3,7,13,0.011045029736618521,0.3146417445482866,9.179101862383904e-07
YIP,MI,Willow Run Airport,42.23789978,-83.53040314,Belleville,48111.0,#cd0033,112,92,20,204,0.17332200509770604,0.3831570824185017,0.011719947857285605
ACV,CA,California Redwood Coast-Humboldt County Airport,40.978101,-124.109,McKinleyville,95519.0,#c479ff,3,4,-1,7,0.00594732370433305,0.30031527336180963,5.8331004939304395e-06
CEC,CA,Jack Mc Namara Field Airport,41.78020096,-124.2369995,Crescent City,95531.0,#c479ff,7,6,1,13,0.011045029736618521,0.3010912818201089,2.437078437379496e-05
EKA,CA,Murray Field,40.8033981323,-124.112998962,Eureka,95501.0,#c479ff,4,4,0,8,0.006796941376380629,0.2772140984878243,8.820664770590307e-06
ACY,NJ,Atlantic City International Airport,39.4575996398926,-74.5772018432617,Egg Harbor City,8215.0,#bdcf6e,91,91,0,182,0.1546304163126593,0.36087437528542304,0.001861285490038796
CEF,MA,Westover ARB/Metropolitan Airport,42.19400024,-72.53479767,Chicopee,1022.0,#5bdac9,6,5,1,11,0.009345794392523366,0.29474450100602567,1.3576533737137732e-06
CRW,WV,Yeager Airport,38.3731002807617,-81.5932006835938,Charleston,25311.0,#ffad64,39,39,0,78,0.06627017841971113,0.3478278389981556,0.0001706391099999008
CVG,KY,Cincinnati Northern Kentucky International Airport,39.0488014221,-84.6678009033,Union,41091.0,#72a4ff,125,140,-15,265,0.22514868309260833,0.4301480453566199,0.008888745078372529
DAY,OH,James M Cox Dayton International Airport,39.902400970459,-84.2193984985352,Vandalia,45377.0,#ff6539,108,116,-8,224,0.1903143585386576,0.3851270417111418,0.0024938083618749863
FAY,NC,Fayetteville Regional Grannis Field,34.9911994934082,-78.8803024291992,Fayetteville,28306.0,#ff588c,37,36,1,73,0.06202209005947324,0.3356917204159537,4.095556709817869e-05
GRB,WI,Austin Straubel International Airport,44.4850997924805,-88.1296005249023,Green Bay,54313.0,#945500,33,41,-8,74,0.06287170773152082,0.3576742614527419,0.0016538709001757965
ILM,NC,Wilmington International Airport,34.2705993652344,-77.9026031494141,Wilmington,28405.0,#ff588c,61,63,-2,124,0.10535259133389975,0.35501047209865916,0.00014986830663016703
ISO,NC,Kinston Regional Jetport At Stallings Field,35.331401825,-77.6088027954,Kinston,28504.0,#ff588c,7,7,0,14,0.0118946474086661,0.2914677416841132,1.3927221787638647e-06
JST,PA,John Murtha Johnstown Cambria County Airport,40.3161010742188,-78.8339004516602,Johnstown,15904.0,#a2d39a,5,5,0,10,0.008496176720475786,0.28913728551955864,1.3148644015407472e-05
LBE,PA,Arnold Palmer Regional Airport,40.27590179,-79.40480042,Latrobe,15650.0,#a2d39a,14,17,-3,31,0.026338147833474938,0.3306118961473642,0.00012726249467461708
LYH,VA,Lynchburg Regional Preston Glenn Field,37.3266983032227,-79.2004013061523,Lynchburg,24502.0,#efbe69,18,15,3,33,0.028037383177570093,0.3229753417244962,0.0001078041517232754
MBS,MI,MBS International Airport,43.532901763916,-84.0795974731445,Freeland,48623.0,#cd0033,14,18,-4,32,0.027187765505522515,0.3332383014233998,7.812211424345391e-05
MDT,PA,Harrisburg International Airport,40.1935005188,-76.7633972168,Middletown,17057.0,#a2d39a,92,93,-1,185,0.15717926932880205,0.3859775246887888,0.0021197958698857488
MIA,FL,Miami International Airport,25.7931995391846,-80.2906036376953,Miami,33126.0,#ad007d,144,156,-12,300,0.2548853016142736,0.4320976244661884,0.012618654314846083
MQT,MI,Sawyer International Airport,46.3535995483,-87.395401001,Gwinn,49841.0,#cd0033,9,8,1,17,0.014443500424808835,0.31894797280396575,3.5795007883269814e-05
ORF,VA,Norfolk International Airport,36.8945999145508,-76.2012023925781,Norfolk,23501.0,#efbe69,108,120,-12,228,0.19371282922684793,0.38883979776768235,0.003904487585380505
PBG,NY,Plattsburgh International Airport,44.6509017944336,-73.4681015014648,Cliff Haven,12901.0,#08601f,14,15,-1,29,0.02463891248937978,0.32277652649413335,4.453917851200728e-06
PIA,IL,General Wayne A. Downing Peoria International Airport,40.6641998291,-89.6932983398,Peoria,61607.0,#852b8a,43,36,7,79,0.06711979609175871,0.3533358944000806,0.0001171342298051127
RME,NY,Griffiss International Airport,43.23379898,-75.40699768,Rome,13440.0,#08601f,15,18,-3,33,0.028037383177570093,0.37069668949432283,0.0013922349319541328
ROA,VA,RoanokeâBlacksburg Regional Airport,37.3255,-79.975403,Roanoke,24012.0,#efbe69,43,56,-13,99,0.08411214953271028,0.3446273199406636,0.00016159632403241816
SRQ,FL,Sarasota Bradenton International Airport,27.3953990936279,-82.5543975830078,Sarasota,34243.0,#ad007d,55,65,-10,120,0.10195412064570944,0.35730866595551597,0.0007439256289803445
SWF,NY,New York Stewart International Airport,41.504101,-74.104797,Newburgh,12550.0,#08601f,35,40,-5,75,0.0637213254035684,0.3434985046116735,0.00011498203901463284
SYR,NY,Syracuse Hancock International Airport,43.111198425293,-76.1063003540039,Syracuse,13211.0,#08601f,96,98,-2,194,0.16482582837723025,0.38626185435706784,0.0022585909713693825
TOL,OH,Toledo Express Airport,41.58679962,-83.80780029,Swanton,43558.0,#ff6539,58,50,8,108,0.09175870858113849,0.3611229113565562,0.0011857893480990741
UST,FL,Northeast Florida Regional Airport,29.9592,-81.339798,Saint Augustine,32095.0,#ad007d,5,4,1,9,0.0076465590484282074,0.31654118158147876,4.3209313186437846e-07
YNG,OH,Youngstown Warren Regional Airport,41.26070023,-80.67910004,Vienna,44473.0,#ff6539,24,22,2,46,0.03908241291418862,0.33612209441648694,0.00013317891271527008
ADK,AK,Adak Airport,51.8779983520508,-176.64599609375,Adak,99546.0,#71de56,3,2,1,5,0.004248088360237893,0.31454737089965185,0.00036549151693773536
A31,,,,,,,,1,0,1,1,0.0008496176720475786,0.2551832972223466,0.0
AKK,AK,Akhiok Airport,56.9387016296,-154.182998657,Kodiak,99615.0,#71de56,9,7,2,16,0.013593882752761258,0.2985200496952574,9.952404332600398e-05
ALZ,AK,Alitak Seaplane Base,56.8995018005,-154.248001099,Kodiak,99615.0,#71de56,1,1,0,2,0.0016992353440951572,0.25484834376171067,0.0
AOS,AK,Amook Bay Seaplane Base,57.4715003967,-153.815002441,Larsen Bay,99624.0,#71de56,2,1,1,3,0.002548853016142736,0.2549102903693338,0.0
BET,AK,Bethel Airport,60.77980042,-161.8379974,Bethel Airport,99559.0,#71de56,79,99,-20,178,0.15123194562446898,0.33622986039738356,0.013660360540404572
CDB,AK,Cold Bay Airport,55.2061004638672,-162.725006103516,Cold Bay,99571.0,#71de56,17,14,3,31,0.026338147833474938,0.3235732596665965,0.0006088790144953425
CKU,AK,Cordova Municipal Airport,60.5438995361,-145.727005005,Cordova,99574.0,#71de56,1,0,1,1,0.0008496176720475786,0.2551832972223466,0.0
DGB,,,,,,,,1,0,1,1,0.0008496176720475786,0.2551832972223466,0.0
DQL,,,,,,,,5,4,1,9,0.0076465590484282074,0.2586830129697679,9.063723659220444e-05
ENA,AK,Kenai Municipal Airport,60.5731010437012,-151.244995117188,Kenai,99611.0,#71de56,25,52,-27,77,0.06542056074766356,0.3567009981562719,0.004537054631972991
JNU,AK,Juneau International Airport,58.3549995422363,-134.57600402832,Juneau,99801.0,#71de56,25,24,1,49,0.041631265930331354,0.3430490463131957,0.018069397539207104
KCL,AK,Chignik Lagoon Airport,56.31119919,-158.5359955,Chignik Lagoon,99565.0,#71de56,14,11,3,25,0.021240441801189464,0.3200185946229598,0.0008144801943511052
KKB,AK,Kitoi Bay Seaplane Base,58.1908988953,-152.369995117,Ouzinkie,99644.0,#71de56,1,1,0,2,0.0016992353440951572,0.25484834376171067,0.0
KLG,AK,Kalskag Airport,61.5363006591797,-160.341003417969,Kalskag,99607.0,#71de56,22,24,-2,46,0.03908241291418862,0.3254813577217378,0.0009822529176645594
KLN,AK,Larsen Bay Airport,57.5350990295,-153.977996826,Larsen Bay,99624.0,#71de56,10,7,3,17,0.014443500424808835,0.31914209816781475,0.00041115820246223275
KMY,,,,,,,,1,1,0,2,0.0016992353440951572,0.25484834376171067,0.0
KOY,AK,Olga Bay Seaplane Base,57.1614990234,-154.229995728,Kodiak,99615.0,#71de56,1,1,0,2,0.0016992353440951572,0.25484834376171067,0.0
KOZ,AK,Ouzinkie Airport,57.925362,-152.496715,Ouzinkie,99644.0,#71de56,10,7,3,17,0.014443500424808835,0.31856042970213827,0.0004041134093606483
KPR,AK,Port Williams Seaplane Base,58.4901008606,-152.582000732,Port William,99697.0,#71de56,1,1,0,2,0.0016992353440951572,0.25484834376171067,0.0
KPY,AK,Port Bailey Seaplane Base,57.9300994873,-153.041000366,Port Lions,99550.0,#71de56,1,1,0,2,0.0016992353440951572,0.25484834376171067,0.0
KSM,AK,St Mary's Airport,62.0605011,-163.302002,Pitkas Point,99658.0,#71de56,39,54,-15,93,0.07901444350042482,0.3299877075454497,0.0013822978355512916
KUK,AK,Kasigluk Airport,60.87440109,-162.5240021,Kasigluk,99609.0,#71de56,30,26,4,56,0.0475785896346644,0.3265963670443598,0.00016523736437072694
KWP,AK,West Point Village Seaplane Base,57.7700996399,-153.548995972,Kodiak,99615.0,#71de56,1,1,0,2,0.0016992353440951572,0.25484834376171067,0.0
KWT,AK,Kwethluk Airport,60.7902984619,-161.444000244,Kwethluk,99621.0,#71de56,32,28,4,60,0.05097706032285472,0.3266981104608845,0.00017010764173334985
KYK,AK,Karluk Airport,57.5671005249,-154.449996948,Karluk,99608.0,#71de56,4,6,-2,10,0.008496176720475786,0.25509631101421537,4.214373373251878e-07
KZB,AK,Zachar Bay Seaplane Base,57.553001,-153.746052,Larsen Bay,99624.0,#71de56,1,1,0,2,0.0016992353440951572,0.25484834376171067,0.0
NNK,AK,Naknek Airport,58.732898712158,-157.02000427246,Naknek,99633.0,#71de56,17,9,8,26,0.022090059473237042,0.27424187619755214,0.0002230003193804963
OLH,,,,,,,,8,8,0,16,0.013593882752761258,0.3166367556097341,0.0005022053230175611
ORI,,,,,,,,4,4,0,8,0.006796941376380629,0.25515837824317256,0.0
SIT,AK,Sitka Rocky Gutierrez Airport,57.0471000671387,-135.361999511719,Sitka,99835.0,#71de56,14,16,-2,30,0.02548853016142736,0.3401559956469151,0.002168025823234375
SWD,AK,Seward Airport,60.1268997192383,-149.419006347656,Seward,99664.0,#71de56,2,1,1,3,0.002548853016142736,0.2567199350255665,0.0
SYB,AK,Seal Bay Seaplane Base,58.3733,-152.2018,Port William,99697.0,#71de56,1,2,-1,3,0.002548853016142736,0.25484834376171067,0.0
UGI,AK,San Juan /Uganik/ Seaplane Base,57.7304,-153.320999,Kodiak,99615.0,#71de56,1,2,-1,3,0.002548853016142736,0.25484834376171067,0.0
UNK,AK,Unalakleet Airport,63.88840103,-160.798996,Unalakleet,99684.0,#71de56,41,41,0,82,0.06966864910790145,0.330507700781418,0.0006792712733099622
VDZ,AK,Valdez Pioneer Field,61.13389969,-146.2480011,Valdez,99686.0,#71de56,11,14,-3,25,0.021240441801189464,0.32823190440671024,0.00011031101967072851
WSJ,,,,,,,,1,0,1,1,0.0008496176720475786,0.2551832972223466,0.0
ADS,TX,Addison Airport,32.9686012268,-96.8364028931,Addison,75001.0,#ff846c,44,39,5,83,0.07051826677994902,0.34921776043271374,0.0028928858231694774
BFI,WA,Boeing Field King County International Airport,47.5299987792969,-122.302001953125,Seattle,98108.0,#77471b,70,73,-3,143,0.12149532710280374,0.40350170626373194,0.017171757768338673
BRO,TX,Brownsville South Padre Island International Airport,25.9067993164062,-97.4259033203125,Brownsville,78521.0,#ff846c,48,44,4,92,0.07816482582837724,0.35902120321103703,0.0003881829010247205
COU,MO,Columbia Regional Airport,38.8181,-92.219597,Columbia,65201.0,#045494,21,28,-7,49,0.041631265930331354,0.33355627690185724,0.0009128301850537105
EVV,IN,Evansville Regional Airport,38.0369987488,-87.5324020386,Evansville,47711.0,#d9c837,19,21,-2,40,0.033984706881903144,0.34026636423732615,0.00011216244625379017
FTW,TX,Fort Worth Meacham International Airport,32.819801,-97.362396,Fort Worth,76106.0,#ff846c,13,9,4,22,0.01869158878504673,0.3254813577217378,3.8594770791001694e-05
FYV,AR,Drake Field,36.0051002502441,-94.1700973510742,Fayetteville,72701.0,#aabc00,11,9,2,20,0.016992353440951572,0.31778816199376947,1.0923394582679538e-05
MKG,MI,Muskegon County Airport,43.16949844,-86.23819733,Muskegon,49441.0,#cd0033,8,12,-4,20,0.016992353440951572,0.3296764962525744,2.5760771163147937e-05
PAE,WA,Snohomish County (Paine Field) Airport,47.90629959,-122.2819977,Everett,98204.0,#77471b,21,15,6,36,0.03058623619371283,0.36540102250154677,0.0014995294392656227
PTK,MI,Oakland County International Airport,42.665500640869,-83.420097351074,Waterford,48327.0,#cd0033,59,46,13,105,0.08920985556499575,0.36324937117403505,0.0022734585634013233
QQY,,,,,,,,1,1,0,2,0.0016992353440951572,0.25509631101421537,2.7238516273091123e-07
SGF,MO,Springfield Branson National Airport,37.24570084,-93.38860321,Springfield,65803.0,#045494,41,35,6,76,0.06457094307561598,0.3501505624639196,0.0002780781955668177
SKF,TX,Lackland Air Force Base,29.38419914,-98.58110046,San Antonio,78243.0,#ff846c,7,7,0,14,0.0118946474086661,0.30898672203283417,1.1436658139093042e-05
ADW,MD,Joint Base Andrews,38.810799,-76.866997,Andrews Air Force Base,20762.0,#b31800,3,6,-3,9,0.0076465590484282074,0.290338021755105,7.319497993500234e-06
LAF,IN,Purdue University Airport,40.4123001098633,-86.936897277832,West Lafayette,47906.0,#d9c837,23,24,-1,47,0.03993203058623619,0.33355627690185724,0.0009943810893246934
MWA,IL,Williamson County Regional Airport,37.75500107,-89.01110077,Marion,62959.0,#852b8a,9,8,1,17,0.014443500424808835,0.3094425891352727,1.869913265373072e-05
AET,AK,Allakaket Airport,66.5518035889,-152.621994019,Allakaket,99720.0,#71de56,16,10,6,26,0.022090059473237042,0.3246752119440988,0.00010264409511308141
AKP,AK,Anaktuvuk Pass Airport,68.13359833,-151.7429962,Anaktuvuk Pass,99721.0,#71de56,18,15,3,33,0.028037383177570093,0.32080175423048,0.00015339770888492068
BTT,AK,Bettles Airport,66.91390228,-151.529007,Bettles Field,99726.0,#71de56,12,16,-4,28,0.0237892948173322,0.29106326244225345,0.00013584667414130123
FBK,AK,Ladd AAF Airfield,64.83750153,-147.6139984,Fort Wainwright,99703.0,#71de56,16,19,-3,35,0.029736618521665252,0.29474450100602567,7.72221094517149e-05
GAL,AK,Edward G. Pitka Sr Airport,64.73619843,-156.9369965,Galena,99741.0,#71de56,31,33,-2,64,0.05437553101104503,0.32771904205607477,0.0019556784598906266
HSL,AK,Huslia Airport,65.69789886,-156.3509979,Huslia,99746.0,#71de56,13,13,0,26,0.022090059473237042,0.3203118309650089,8.585145654003901e-05
HUS,AK,Hughes Airport,66.04109955,-154.2630005,Hughes,99745.0,#71de56,12,13,-1,25,0.021240441801189464,0.32011628039665424,0.0001531242428455545
KYU,AK,Koyukuk Airport,64.8760986328,-157.727005005,Koyukuk,99754.0,#71de56,10,11,-1,21,0.01784197111299915,0.31953105867746473,7.3837858738018e-05
MLY,AK,Manley Hot Springs Airport,64.9975967407,-150.643997192,Manley Hot Springs,99756.0,#71de56,7,6,1,13,0.011045029736618521,0.2914677416841132,7.595413025002023e-06
AEX,LA,Alexandria International Airport,31.3274002075195,-92.5497970581055,Alexandria,71303.0,#e67700,39,42,-3,81,0.06881903143585387,0.3486372787830583,0.002556888974230856
AZA,AZ,Phoenix-Mesa-Gateway Airport,33.30780029,-111.6549988,Mesa,85212.0,#803dc3,65,72,-7,137,0.11639762107051826,0.359760183389173,0.0025147694918581103
CSG,GA,Columbus Metropolitan Airport,32.516300201416,-84.9389038085938,Columbus,31909.0,#019f43,28,21,7,49,0.041631265930331354,0.32884946208198157,9.397552885326239e-05
GYY,IN,Gary Chicago International Airport,41.6162986755371,-87.4128036499023,Gary,46406.0,#d9c837,41,23,18,64,0.05437553101104503,0.3451945143447792,0.001534151569521789
HLM,MI,Park Township Airport,42.7958984375,-86.1620025635,Holland,49424.0,#cd0033,2,2,0,4,0.0033984706881903144,0.25855545724345147,1.4364976009901693e-05
JQF,,,,,,,,58,42,16,100,0.08496176720475786,0.34886923971371897,0.0004144604360150074
KIP,TX,Kickapoo Downtown Airport,33.85779953,-98.49040222,Wichita Falls,76302.0,#ff846c,1,1,0,2,0.0016992353440951572,0.2546626844534821,0.0
LAW,OK,Lawton Fort Sill Regional Airport,34.5676994324,-98.4166030884,Lawton,73505.0,#007667,7,10,-3,17,0.014443500424808835,0.3235732596665965,0.0008070662808530295
LCH,LA,Lake Charles Regional Airport,30.1261005401611,-93.2232971191406,Lake Charles,70607.0,#e67700,14,8,6,22,0.01869158878504673,0.3332383014233998,1.572016456340028e-05
LFT,LA,Lafayette Regional Airport,30.20529938,-91.98760223,Lafayette,70508.0,#e67700,22,21,1,43,0.03653355989804588,0.3394952847456909,5.844725146988874e-05
LNK,NE,Lincoln Airport,40.851001739502,-96.7592010498047,Lincoln,68524.0,#b2a5ff,51,47,4,98,0.08326253186066271,0.37043480557380404,0.0024866666652395247
MOB,AL,Mobile Regional Airport,30.691200256348,-88.242797851562,Mobile,36608.0,#8d4b4c,21,18,3,39,0.03313508920985556,0.34026636423732615,3.128606226955815e-05
PAH,KY,Barkley Regional Airport,37.0607986450195,-88.7738037109375,West Paducah,42086.0,#72a4ff,5,4,1,9,0.0076465590484282074,0.31388833719827575,1.646912986167477e-06
CMI,IL,University of Illinois Willard Airport,40.03919983,-88.27809906,Savoy,61874.0,#852b8a,28,25,3,53,0.045029736618521665,0.3447406096579353,9.001847273109258e-05
TXK,AR,Texarkana Regional Webb Field,33.4537010192871,-93.9909973144531,Texarkana,71854.0,#aabc00,5,3,2,8,0.006796941376380629,0.3083507599469095,1.664591127851178e-06
BMG,IN,Monroe County Airport,39.1459999084473,-86.61669921875,Bloomington,47403.0,#d9c837,19,21,-2,40,0.033984706881903144,0.33355627690185724,0.00013015356178084747
AGN,AK,Angoon Seaplane Base,57.503601,-134.585007,Angoon,99820.0,#71de56,2,3,-1,5,0.004248088360237893,0.2517285008592029,3.6123200342158955e-07
KAE,AK,Kake Seaplane Base,56.973,-133.945999,Kake,99830.0,#71de56,5,6,-1,11,0.009345794392523366,0.2518494079201343,0.00015917023916856913
TKE,AK,Tenakee Seaplane Base,57.77970123291,-135.21800231934,Tenakee Springs,99841.0,#71de56,4,3,1,7,0.00594732370433305,0.2518494079201343,1.8061600171079479e-06
CTZ,NC,Sampson County Airport,34.9756011963,-78.3646011353,Clinton,28328.0,#ff588c,2,2,0,4,0.0033984706881903144,0.284509206342767,3.5478938079320934e-07
AHN,GA,Athens Ben Epps Airport,33.948600769043,-83.326301574707,Athens,30605.0,#019f43,5,7,-2,12,0.010195412064570943,0.3047663279800753,0.0008027681247546658
GVL,GA,Lee Gilmer Memorial Airport,34.27259827,-83.8302002,Gainesville,30501.0,#019f43,1,1,0,2,0.0016992353440951572,0.23048372188559105,0.0
JZT,,,,,,,,28,13,15,41,0.034834324553950725,0.3263930702083533,0.00031021539416739585
AIA,NE,Alliance Municipal Airport,42.0531997681,-102.804000854,Alliance,69301.0,#b2a5ff,2,2,0,4,0.0033984706881903144,0.3090777879691834,3.6123200342158955e-07
CDR,NE,Chadron Municipal Airport,42.837600708,-103.095001221,Chadron,69337.0,#b2a5ff,2,1,1,3,0.002548853016142736,0.3090777879691834,0.0
AIK,SC,Aiken Regional Airport,33.649399,-81.684998,Aiken,29801.0,#4e6500,1,1,0,2,0.0016992353440951572,0.2713327126984319,0.0
AIN,AK,Wainwright Airport,70.6380004883,-159.994995117,Wainwright,99782.0,#71de56,16,16,0,32,0.027187765505522515,0.3253803706420848,3.660895411133517e-05
ATK,AK,Atqasuk Edward Burnell Sr Memorial Airport,70.4673004150391,-157.436004638672,Atqasuk,99791.0,#71de56,15,13,2,28,0.0237892948173322,0.3211947732249431,4.8689889561502985e-05
AUK,AK,Alakanuk Airport,62.6800422668,-164.659927368,Alakanuk,99554.0,#71de56,22,23,-1,45,0.038232795242141036,0.3248763737854521,0.0002628556771067766
BTI,AK,Barter Island LRRS Airport,70.1340026855,-143.582000732,Kaktovik,99747.0,#71de56,13,20,-7,33,0.028037383177570093,0.32149017001209046,5.9190986332286334e-05
PHO,AK,Point Hope Airport,68.3488006591797,-166.79899597168,Point Hope,99766.0,#71de56,20,19,1,39,0.03313508920985556,0.3247757617155278,0.00015477436905667866
PIZ,AK,Point Lay LRRS Airport,69.73290253,-163.0050049,Barrow,99723.0,#71de56,15,18,-3,33,0.028037383177570093,0.32149017001209046,0.00012986147710882705
AK3,,,,,,,,1,1,0,2,0.0016992353440951572,0.28985653249846305,0.0
AK5,,,,,,,,2,2,0,4,0.0033984706881903144,0.31865722715874784,0.0
AK7,,,,,,,,1,2,-1,3,0.002548853016142736,0.28985653249846305,0.0
AKB,AK,Atka Airport,52.22029877,-174.2059937,Atka,99547.0,#71de56,2,2,0,4,0.0033984706881903144,0.3144530538469083,0.0
AKI,AK,Akiak Airport,60.9029006958,-161.231002808,Akiak,99552.0,#71de56,19,15,4,34,0.02888700084961767,0.32397310305203564,6.821164111046547e-05
ANI,AK,Aniak Airport,61.581600189209,-159.542999267578,Aniak,99557.0,#71de56,41,51,-10,92,0.07816482582837724,0.3300915752532072,0.003182413679767823
ATT,AK,Atmautluak Airport,60.866699,-162.272995,Bethel,99559.0,#71de56,20,17,3,37,0.03143585386576041,0.31904500595662894,3.615730105808915e-05
EMK,AK,Emmonak Airport,62.78609848,-164.4909973,Emmonak,99581.0,#71de56,29,36,-7,65,0.05522514868309261,0.32558240750681133,0.0007326276783014958
ILI,AK,Iliamna Airport,59.75439835,-154.9109955,Newhalen,99606.0,#71de56,28,30,-2,58,0.04927782497875956,0.32277652649413335,0.001788967986630475
KKI,AK,Akiachak Airport,60.904800415039,-161.42199707031,Akiachak,99551.0,#71de56,20,17,3,37,0.03143585386576041,0.32337370785674974,0.00015309420761127116
KWN,AK,Quinhagak Airport,59.7551,-161.845,Quinhagak,99655.0,#71de56,29,24,5,53,0.045029736618521665,0.32608859906077087,0.00015598673087017817
PKA,AK,Napaskiak Airport,60.70289993,-161.7779999,Napaskiak,99559.0,#71de56,23,21,2,44,0.03738317757009346,0.24957185496892886,2.0566142093124528e-05
SXP,AK,Nunam Iqua Airport,62.520599,-164.848006,Nunam Iqua,99666.0,#71de56,19,20,-1,39,0.03313508920985556,0.32437393584269697,0.00023991940463489775
TLT,AK,Tuluksak Airport,61.0968017578,-160.968994141,Tuluksak,99679.0,#71de56,16,13,3,29,0.02463891248937978,0.3203118309650089,3.819742822052453e-05
WTL,AK,Tuntutuliak Airport,60.3353004456,-162.667007446,Tuntutuliak,99680.0,#71de56,25,20,5,45,0.038232795242141036,0.3252794462095035,0.00010294876565788648
DLG,AK,Dillingham Airport,59.04470062,-158.5050049,Dillingham,99576.0,#71de56,31,39,-8,70,0.059473237043330504,0.3241733955423305,0.004925047691867856
IGG,AK,Igiugig Airport,59.3240013122559,-155.901992797852,King Salmon,99613.0,#71de56,10,12,-2,22,0.01869158878504673,0.31846369103535965,0.000277814487317827
KCG,AK,Chignik Fisheries Airport,56.317643,-158.589706,Chignik Lagoon,99565.0,#71de56,9,7,2,16,0.013593882752761258,0.25239493010335484,3.401179346812485e-06
KCQ,AK,Chignik Lake Airport,56.2550010681,-158.774993896,Chignik Lake,99548.0,#71de56,7,7,0,14,0.0118946474086661,0.2514870346713283,2.7660050547710286e-07
KEK,AK,Ekwok Airport,59.3568000793457,-157.470993041992,Ekwok,99580.0,#71de56,6,6,0,12,0.010195412064570943,0.31721141396837244,4.8869290921381985e-05
KGK,AK,Koliganek Airport,59.726600647,-157.259002686,Koliganek,99576.0,#71de56,10,7,3,17,0.014443500424808835,0.256343420821178,1.962102613446582e-05
KLL,AK,Levelock Airport,59.1281013489,-156.85899353,Levelock,99625.0,#71de56,7,8,-1,15,0.01274426508071368,0.25275992638694605,3.0178298111084384e-06
KNK,AK,Kokhanok Airport,59.4332008362,-154.804000854,Kokhanok,99606.0,#71de56,14,15,-1,29,0.02463891248937978,0.3179808776772102,0.00063050823237514
KNW,AK,New Stuyahok Airport,59.4499015808,-157.32800293,New Stuyahok,99636.0,#71de56,14,11,3,25,0.021240441801189464,0.32437393584269697,0.0005941527159039151
KPN,AK,Kipnuk Airport,59.9329986572,-164.031005859,Kipnuk,99614.0,#71de56,28,21,7,49,0.041631265930331354,0.3267999172887003,0.00014794851237248105
KPV,AK,Perryville Airport,55.905998,-159.162993,Perryville,99648.0,#71de56,10,9,1,19,0.016142735768903994,0.31740343056278425,0.0004974811764088912
KQA,AK,Akutan Seaplane Base,54.1337704415,-165.778895617,Akutan,99553.0,#71de56,4,1,3,5,0.004248088360237893,0.31730739321616924,0.0
LKK,AK,Kulik Lake Airport,58.9821014404,-155.121002197,Kokhanok,99606.0,#71de56,3,3,0,6,0.005097706032285472,0.25136647521079564,8.569367060266434e-06
MRI,AK,Merrill Field,61.2135009765625,-149.843994140625,Anchorage,99501.0,#71de56,12,8,4,20,0.016992353440951572,0.2975038112282097,0.003316705610085137
NLG,AK,Nelson Lagoon Airport,56.007499694824,-161.16000366211,Nelson Lagoon,99571.0,#71de56,5,5,0,10,0.008496176720475786,0.31596894684526644,0.0001590439899932898
NNL,AK,Nondalton Airport,59.980201721191,-154.8390045166,Nondalton,99640.0,#71de56,14,12,2,26,0.022090059473237042,0.31778816199376947,0.000670571010701423
PCA,AK,Portage Creek Airport,58.9065,-157.714,Wood River,99576.0,#71de56,2,2,0,4,0.0033984706881903144,0.25178893987501544,0.0
PIP,AK,Pilot Point Airport,57.5803985596,-157.572006226,Pilot Point,99649.0,#71de56,13,10,3,23,0.01954120645709431,0.3176918917235502,0.00027069490118715217
PML,AK,Port Moller Airport,56.0060005188,-160.561004639,Nelson Lagoon,99571.0,#71de56,4,4,0,8,0.006796941376380629,0.2516077098319192,2.033365115104541e-06
PTA,AK,Port Alsworth Airport,60.201681,-154.325863,Port Alsworth,99653.0,#71de56,6,6,0,12,0.010195412064570943,0.31635020650963475,0.00013216835202738635
PTH,AK,Port Heiden Airport,56.959098815918,-158.632995605469,Port Heiden,99549.0,#71de56,14,12,2,26,0.022090059473237042,0.3200185946229598,0.0006446809795194247
RBH,,,,,,,,3,3,0,6,0.005097706032285472,0.2512460312840056,0.0
TOG,AK,Togiak Airport,59.0527992248535,-160.397003173828,Togiak,99678.0,#71de56,15,14,1,29,0.02463891248937978,0.3213916440635732,0.0011243999720768976
UGB,AK,Ugashik Bay Airport,57.4253997803,-157.740005493,Pilot Point,99649.0,#71de56,4,2,2,6,0.005097706032285472,0.251306238816065,0.0
VZM,,,,,,,,1,1,0,2,0.0016992353440951572,0.2511257027249615,0.0
WRG,AK,Wrangell Airport,56.48429871,-132.3699951,Wrangell,99929.0,#71de56,10,11,-1,21,0.01784197111299915,0.33579921056017903,0.006081660212233006
WSN,AK,South Naknek Nr 2 Airport,58.7033996582,-157.007995605,South Naknek,99670.0,#71de56,5,6,-1,11,0.009345794392523366,0.25881069461486655,8.258937050873472e-06
CXF,AK,Coldfoot Airport,67.2521972656,-150.203994751,Fairbanks,99701.0,#71de56,7,8,-1,15,0.01274426508071368,0.2905793667440951,9.59216921408935e-06
WAA,AK,Wales Airport,65.622593,-168.095,Wales,99783.0,#71de56,16,14,2,30,0.02548853016142736,0.32178611064112894,0.00035619717558272327
BGM,NY,Greater Binghamton/Edwin A Link field,42.20869827,-75.97979736,Johnson City,13790.0,#08601f,17,14,3,31,0.026338147833474938,0.3287463744763132,4.1203941502102794e-05
BTR,LA,Baton Rouge Metropolitan Airport,30.533199,-91.149597,Baton Rouge,70807.0,#e67700,35,40,-5,75,0.0637213254035684,0.3451945143447792,0.00026374699733177026
CHO,VA,Charlottesville Albemarle Airport,38.138599395752,-78.4529037475586,Charlottesville,22911.0,#efbe69,38,36,2,74,0.06287170773152082,0.3521494071791267,0.0003464998638080893
FNT,MI,Bishop International Airport,42.9654006958008,-83.7435989379883,Flint,48507.0,#cd0033,65,64,1,129,0.10960067969413764,0.3626213466733884,0.0013852996607939324
HNL,HI,Daniel K Inouye International Airport,21.32062,-157.924228,Honolulu,96819.0,#e40087,81,61,20,142,0.12064570943075616,0.41549165395381904,0.006454341194272259
ITH,NY,Ithaca Tompkins Regional Airport,42.4910011291504,-76.4583969116211,Ithaca,14850.0,#08601f,20,25,-5,45,0.038232795242141036,0.3309248768000755,0.0004939853412018242
MSS,NY,Massena International Richards Field,44.9357986450195,-74.8455963134766,Massena,13662.0,#08601f,1,1,0,2,0.0016992353440951572,0.2780962435904108,0.0
OGS,NY,Ogdensburg International Airport,44.6819000244,-75.4654998779,Ogdensburg,13669.0,#08601f,2,2,0,4,0.0033984706881903144,0.2795790281470113,0.00022952323633543379
RUT,VT,Rutland - Southern Vermont Regional Airport,43.52939987,-72.94960022,North Clarendon,5759.0,#a74600,5,5,0,10,0.008496176720475786,0.3126717157362669,1.193551200103943e-05
SCE,PA,University Park Airport,40.8493003845,-77.8487014771,Bellefonte,16823.0,#a2d39a,44,45,-1,89,0.07561597281223449,0.3568223663080773,0.0002783750845743128
SHD,VA,Shenandoah Valley Regional Airport,38.2638015747,-78.8964004517,Weyers Cave,24486.0,#efbe69,10,5,5,15,0.01274426508071368,0.2944135133575068,1.9330857873443147e-05
SOP,NC,Moore County Airport,35.23740005,-79.3911972,Carthage,28327.0,#ff588c,3,3,0,6,0.005097706032285472,0.3058328768094019,2.40180377720782e-06
FAR,ND,Hector International Airport,46.9207000732422,-96.815803527832,Fargo,58102.0,#008654,48,41,7,89,0.07561597281223449,0.38526852850089616,0.0013882128232599615
HUF,IN,"Terre Haute Regional Airport, Hulman Field",39.4515,-87.307602,Terre Haute,47803.0,#d9c837,5,6,-1,11,0.009345794392523366,0.29499323054273957,4.3645260682806606e-06
ALS,CO,San Luis Valley Regional Bergman Field,37.434898,-105.866997,Alamosa,81101.0,#7fac00,3,2,1,5,0.004248088360237893,0.3092600809729989,5.659301386938236e-07
ALW,WA,Walla Walla Regional Airport,46.09489822,-118.288002,Walla Walla,99362.0,#77471b,2,2,0,4,0.0033984706881903144,0.3093513081355278,2.1578319118964218e-07
GJT,CO,Grand Junction Regional Airport,39.1223983765,-108.527000427,Grand Junction,81506.0,#7fac00,33,27,6,60,0.05097706032285472,0.360130815446236,0.00010122433519037623
GRK,TX,Robert Gray  Army Air Field Airport,31.067199707,-97.8289031982,Killeen,76544.0,#ff846c,15,11,4,26,0.022090059473237042,0.3328152759693555,1.8332565032837088e-05
ANB,AL,Anniston Regional Airport,33.5882,-85.8581,Anniston,36203.0,#8d4b4c,16,11,5,27,0.022939677145284623,0.31846369103535965,6.452407615270691e-05
MQY,TN,Smyrna Airport,36.0089988708,-86.5201034546,La Vergne,37086.0,#917c00,40,31,9,71,0.06032285471537808,0.34226531807422955,0.0017769425691647018
NGU,VA,Norfolk Naval Station (Chambers Field),36.937599,-76.289299,Norfolk,23551.0,#efbe69,30,24,6,54,0.045879354290569246,0.3364455998009109,0.0010497278628083726
ANV,AK,Anvik Airport,62.646702,-160.190994,Anvik,99558.0,#71de56,11,14,-3,25,0.021240441801189464,0.32327402422300844,6.673384890112976e-06
CHU,AK,Chuathbaluk Airport,61.579102,-159.216003,Chuathbaluk,99557.0,#71de56,9,8,1,17,0.014443500424808835,0.3223796294434182,0.00011918286194599778
CKD,AK,Crooked Creek Airport,61.8679008484,-158.134994507,Crooked Creek,99575.0,#71de56,10,13,-3,23,0.01954120645709431,0.3182703898571895,0.00014916426316975934
CYF,AK,Chefornak Airport,60.1492004395,-164.285995483,Chefornak,99561.0,#71de56,22,20,2,42,0.0356839422259983,0.3238730495921677,0.00011424816367575662
CYS,WY,Cheyenne Regional Jerry Olson Field,41.15570068,-104.8119965,Cheyenne,82001.0,#db9d83,22,16,6,38,0.03228547153780799,0.3737351869491943,0.0003397106005274023
CZF,AK,Cape Romanzof LRRS Airport,61.78030014,-166.0390015,Scammon Bay,99662.0,#71de56,3,3,0,6,0.005097706032285472,0.3176918917235502,3.03571571719214e-05
EEK,AK,Eek Airport,60.21367264,-162.0438843,Eek,99578.0,#71de56,28,16,12,44,0.03738317757009346,0.3262915166706407,8.014467705336511e-05
EHM,AK,Cape Newenham LRRS Airport,58.6464004517,-162.06300354,Platinum,99651.0,#71de56,3,3,0,6,0.005097706032285472,0.3176918917235502,3.03571571719214e-05
ELI,AK,Elim Airport,64.61470032,-162.2720032,Elim,99739.0,#71de56,16,11,5,27,0.022939677145284623,0.32178611064112894,7.827175026183806e-06
ENN,AK,Nenana Municipal Airport,64.5473022460938,-149.074005126953,Nenana,99760.0,#71de56,9,5,4,14,0.0118946474086661,0.31953105867746473,2.5888621476790495e-05
FLT,AK,Flat Airport,62.4525985718,-157.988998413,Turnagain Heights,99503.0,#71de56,2,2,0,4,0.0033984706881903144,0.3153039490617677,0.0
FVQ,,,,,,,,3,1,2,4,0.0033984706881903144,0.31740343056278425,0.0
FWL,AK,Farewell Airport,62.5065994263,-153.893997192,Nikolai,99691.0,#71de56,4,2,2,6,0.005097706032285472,0.31894797280396575,1.547263274835393e-06
GAM,AK,Gambell Airport,63.7667999267578,-171.733001708984,Gambell,99742.0,#71de56,15,14,1,29,0.02463891248937978,0.3212931784863478,1.2816380140517613e-05
GBH,AK,Galbraith Lake Airport,68.4796981812,-149.490005493,North Slope,,#71de56,2,2,0,4,0.0033984706881903144,0.31865722715874784,0.0
GEK,,,,,,,,6,3,3,9,0.0076465590484282074,0.32080175423048,0.0005674645062106481
GKN,AK,Gulkana Airport,62.1548996,-145.4570007,Tazlina,99588.0,#71de56,3,3,0,6,0.005097706032285472,0.31454737089965185,0.0028560186938123315
GLV,AK,Golovin Airport,64.5504989624,-163.007003784,Golovin,99762.0,#71de56,18,19,-1,37,0.03143585386576041,0.32267721063982746,0.00011096534482244353
GNU,AK,Goodnews Airport,59.117401123,-161.57699585,Goodnews Bay,99589.0,#71de56,12,10,2,22,0.01869158878504673,0.31865722715874784,3.575899078497525e-05
HCR,AK,Holy Cross Airport,62.1883010864258,-159.774993896484,Holy Cross,99602.0,#71de56,16,17,-1,33,0.028037383177570093,0.3238730495921677,0.000369677196966383
HPB,AK,Hooper Bay Airport,61.52389908,-166.1470032,Hooper Bay,99604.0,#71de56,26,26,0,52,0.044180118946474084,0.3256835200557265,0.0002894054149396193
HSV,AL,Huntsville International Carl T Jones Field,34.637199401855,-86.775100708008,Huntsville,35824.0,#8d4b4c,63,59,4,122,0.10365335598980459,0.4102898805083878,0.0025535564663055543
JZE,,,,,,,,3,2,1,5,0.004248088360237893,0.31492520557941117,0.0010005973365189472
KAL,AK,Kaltag Airport,64.31909943,-158.7409973,Kaltag,99748.0,#71de56,20,11,9,31,0.026338147833474938,0.3248763737854521,3.076625349552824e-05
KFP,AK,False Pass Airport,54.8474006652832,-163.410003662109,False Pass,99583.0,#71de56,3,3,0,6,0.005097706032285472,0.3144530538469083,0.0
KGX,AK,Grayling Airport,62.895187,-160.066289,Grayling,99590.0,#71de56,23,23,0,46,0.03908241291418862,0.3244742990654206,0.0006748180530670395
KKA,AK,Koyuk Alfred Adams Airport,64.9394989014,-161.154006958,Koyuk,99753.0,#71de56,21,19,2,40,0.033984706881903144,0.32457472441332075,0.0001495050021432874
KKH,AK,Kongiganak Airport,59.9608001709,-162.880996704,Bethel,99559.0,#71de56,25,19,6,44,0.03738317757009346,0.32427363468751985,0.00010909609739415696
KMO,AK,Manokotak Airport,58.9902000427,-159.050003052,Manokotak,99628.0,#71de56,9,8,1,17,0.014443500424808835,0.3183670111048692,0.000548098148148013
KOA,HI,Ellison Onizuka Kona International At Keahole Airport,19.738783,-156.045603,Kailua Kona,96740.0,#e40087,42,42,0,84,0.0713678844519966,0.395288705080829,0.0032615711922781023
KOT,AK,Kotlik Airport,63.0306015015,-163.533004761,Kotlik,99620.0,#71de56,23,21,2,44,0.03738317757009346,0.3256835200557265,0.0003195601778675777
KTN,AK,Ketchikan International Airport,55.35559845,-131.7140045,Ketchikan,99901.0,#71de56,26,22,4,48,0.04078164825828377,0.35309795777085495,0.027487237336523928
KTS,AK,Brevig Mission Airport,65.3312988281,-166.466003418,Brevig Mission,99785.0,#71de56,11,9,2,20,0.016992353440951572,0.3211947732249431,5.1427471700657625e-06
KVC,AK,King Cove Airport,55.1162986755371,-162.266006469727,King Cove,99612.0,#71de56,9,8,1,17,0.014443500424808835,0.3168280769122173,0.0002864461344986696
KVL,AK,Kivalina Airport,67.736198425293,-164.563003540039,Kivalina,99750.0,#71de56,17,13,4,30,0.02548853016142736,0.3215887563874392,3.754983414210436e-05
KWK,AK,Kwigillingok Airport,59.876499,-163.169005,Kwigillingok,99622.0,#71de56,19,20,-1,39,0.03313508920985556,0.32327402422300844,0.0015051180500200141
MCG,AK,McGrath Airport,62.95289993,-155.6060028,Mc Grath,99627.0,#71de56,32,31,1,63,0.05352591333899745,0.32761666184924687,0.007791292684504863
MDO,AK,Middleton Island Airport,59.4499015808,-146.307006836,Valdez-Cordova,,#71de56,1,0,1,1,0.0008496176720475786,0.31445364701119455,0.0
MLL,AK,Marshall Don Hunter Sr Airport,61.8642997742,-162.026000977,Marshall,99585.0,#71de56,23,20,3,43,0.03653355989804588,0.3203118309650089,8.383328979435944e-05
MOU,AK,Mountain Village Airport,62.095401763916,-163.682006835938,Mountain Village,99632.0,#71de56,22,24,-2,46,0.03908241291418862,0.32457472441332075,0.0002365650352854508
MYU,AK,Mekoryuk Airport,60.3713989257812,-166.27099609375,Mekoryuk,99630.0,#71de56,9,7,2,16,0.013593882752761258,0.3223796294434182,0.00026016011332385833
NCN,AK,Chenega Bay Airport,60.0773010254,-147.992004395,Port Ashton,99574.0,#71de56,3,1,2,4,0.0033984706881903144,0.31435879333916045,0.0
NIB,AK,Nikolai Airport,63.0186,-154.358002,Nikolai,99691.0,#71de56,7,9,-2,16,0.013593882752761258,0.32011628039665424,0.0004790657563979635
NIN,,,,,,,,2,2,0,4,0.0033984706881903144,0.3153039490617677,0.0
NME,AK,Nightmute Airport,60.471000671387,-164.70100402832,Nightmute,99690.0,#71de56,20,14,6,34,0.02888700084961767,0.3248763737854521,6.756452627644463e-05
NUL,AK,Nulato Airport,64.729301,-158.074005,Nulato,99765.0,#71de56,10,9,1,19,0.016142735768903994,0.3199209684501035,2.9658613182261717e-06
NUP,AK,Nunapitchuk Airport,60.905591,-162.440454,Nunapitchuk,99641.0,#71de56,21,18,3,39,0.03313508920985556,0.32337370785674974,5.401002441968163e-05
OGG,HI,Kahului Airport,20.8986,-156.429993,Kahului,96732.0,#e40087,54,45,9,99,0.08411214953271028,0.40303648523421953,0.005077084394754572
OOK,AK,Toksook Bay Airport,60.54140091,-165.0870056,Toksook Bay,99637.0,#71de56,30,23,7,53,0.045029736618521665,0.3251785843657176,0.0024590202246595255
PDB,AK,Pedro Bay Airport,59.7896003723,-154.12399292,Pedro Bay,99647.0,#71de56,5,6,-1,11,0.009345794392523366,0.3153039490617677,1.7782916975196184e-05
PPC,AK,Prospect Creek Airport,66.814102172852,-150.64399719238,Evansville,99726.0,#71de56,2,2,0,4,0.0033984706881903144,0.31865722715874784,0.0
PQS,AK,Pilot Station Airport,61.934601,-162.899994,Pilot Station,99650.0,#71de56,21,18,3,39,0.03313508920985556,0.32367312795661707,0.00012199502576526088
PSG,AK,Petersburg James A Johnson Airport,56.80170059,-132.9450073,Petersburg,99833.0,#71de56,10,8,2,18,0.015293118096856415,0.33547694644255893,0.005051884046999807
PTU,AK,Platinum Airport,59.0113983154297,-161.820007324219,Platinum,99651.0,#71de56,14,16,-2,30,0.02548853016142736,0.3183670111048692,0.0009474283862954638
RBY,AK,Ruby Airport,64.72720337,-155.4700012,Ruby,99768.0,#71de56,17,14,3,31,0.026338147833474938,0.3213916440635732,0.00022293234424425014
RDV,AK,Red Devil Airport,61.7881011963,-157.350006104,Red Devil,99656.0,#71de56,5,2,3,7,0.00594732370433305,0.3221815467217939,0.0
RFD,IL,Chicago Rockford International Airport,42.1954002380371,-89.0971984863281,Rockford,61109.0,#852b8a,68,59,9,127,0.10790144435004248,0.4091693072881152,0.0018781456921688035
RQZ,,,,,,,,2,0,2,2,0.0016992353440951572,0.3190372410156092,0.0
RSH,AK,Russian Mission Airport,61.7788848877,-161.319458008,Russian Mission,99657.0,#71de56,20,24,-4,44,0.03738317757009346,0.3238730495921677,0.0012670471414754996
SCM,AK,Scammon Bay Airport,61.8452987671,-165.570999146,Scammon Bay,99662.0,#71de56,22,20,2,42,0.0356839422259983,0.3246752119440988,3.695023820291828e-05
SHH,AK,Shishmaref Airport,66.249604,-166.089112,Shishmaref,99772.0,#71de56,20,17,3,37,0.03143585386576041,0.32178611064112894,0.00010496344877790666
SHX,AK,Shageluk Airport,62.6922988892,-159.569000244,Shageluk,99665.0,#71de56,14,12,2,26,0.022090059473237042,0.32377305791276295,0.0001043924834210955
SKK,AK,Shaktoolik Airport,64.37110138,-161.223999,Shaktoolik,99771.0,#71de56,15,10,5,25,0.021240441801189464,0.3183670111048692,2.831886007292864e-05
SLQ,AK,Sleetmute Airport,61.7005004883,-157.166000366,Sleetmute,99668.0,#71de56,9,8,1,17,0.014443500424808835,0.32317440202756215,0.00015498578570137395
SMK,AK,St Michael Airport,63.49010086,-162.1100006,Saint Michael,99659.0,#71de56,21,18,3,39,0.03313508920985556,0.32427363468751985,6.300181316383392e-05
SNP,AK,St Paul Island Airport,57.1673011779785,-170.220001220703,Saint Paul Island,99660.0,#71de56,7,6,1,13,0.011045029736618521,0.31943372969218375,7.670132295961437e-06
SRV,AK,Stony River 2 Airport,61.7896995544,-156.589004517,Aniak,99557.0,#71de56,9,6,3,15,0.01274426508071368,0.31904500595662894,3.4366257074010523e-06
STG,AK,St George Airport,56.5783004761,-169.662002563,Saint George Island,99591.0,#71de56,3,4,-1,7,0.00594732370433305,0.31730739321616924,1.296962388272504e-06
SVA,AK,Savoonga Airport,63.6864013671875,-170.49299621582,Savoonga,99769.0,#71de56,12,8,4,20,0.016992353440951572,0.32337370785674974,0.0006428229727266276
SVW,AK,Sparrevohn LRRS Airport,61.09740067,-155.5740051,Lime Village,99673.0,#71de56,2,1,1,3,0.002548853016142736,0.31454737089965185,2.7372299963100255e-05
SXQ,AK,Soldotna Airport,60.475700378418,-151.033996582031,Soldotna,99669.0,#71de56,5,1,4,6,0.005097706032285472,0.32021402582578296,1.0316766289015e-05
SYA,AK,Eareckson Air Station,52.71229935,174.1139984,Aleutians West,,#71de56,1,1,0,2,0.0016992353440951572,0.31407635057784944,0.0
TAL,AK,Ralph M Calhoun Memorial Airport,65.1744003296,-152.10899353,Tanana,99777.0,#71de56,15,13,2,28,0.0237892948173322,0.32149017001209046,0.0002928802768473156
TEK,AK,Tatitlek Airport,60.871449,-146.690297,Tatitlek,99677.0,#71de56,3,3,0,6,0.005097706032285472,0.3144530538469083,0.00021732061257051302
TKJ,AK,Tok Junction Airport,63.32949829,-142.9539948,Tok,99780.0,#71de56,9,9,0,18,0.015293118096856415,0.31953105867746473,0.0028208299615745326
TLA,AK,Teller Airport,65.2404022217,-166.339004517,Teller,99778.0,#71de56,11,11,0,22,0.01869158878504673,0.31740343056278425,2.6138899410336928e-06
TLJ,AK,Tatalina LRRS Airport,62.8944015503,-155.977005005,Mc Grath,99627.0,#71de56,3,4,-1,7,0.00594732370433305,0.3157786614210898,4.6866269140596354e-05
TNK,AK,Tununak Airport,60.575500488281,-165.27200317383,Tununak,99681.0,#71de56,19,15,4,34,0.02888700084961767,0.32040969586906176,1.447647866085064e-05
TYE,AK,Tyonek Airport,61.076698303223,-151.13800048828,Tyonek,99682.0,#71de56,3,4,-1,7,0.00594732370433305,0.31923924949145793,0.00022942618897829088
UMT,AK,Umiat Airport,69.37110138,-152.1360016,Umiat,,#71de56,7,6,1,13,0.011045029736618521,0.31982340182355573,7.060440415473322e-05
VAK,AK,Chevak Airport,61.5409,-165.6005,Chevak,99563.0,#71de56,31,26,5,57,0.04842820730671198,0.3266981104608845,0.0001226469883005865
VEE,AK,Venetie Airport,67.0086975098,-146.365997314,Venetie,99781.0,#71de56,7,10,-3,17,0.014443500424808835,0.31914209816781475,0.0002390002654899491
VZY,,,,,,,,1,1,0,2,0.0016992353440951572,0.31407635057784944,0.0
WBB,AK,Stebbins Airport,63.5159988403,-162.277999878,Stebbins,99671.0,#71de56,18,21,-3,39,0.03313508920985556,0.32427363468751985,0.00012372971209228406
WMO,AK,White Mountain Airport,64.689201355,-163.412994385,White Mountain,99784.0,#71de56,14,10,4,24,0.020390824129141887,0.32149017001209046,3.705246973045578e-06
WNA,AK,Napakiak Airport,60.690299987793,-161.97900390625,Napakiak,99634.0,#71de56,16,14,2,30,0.02548853016142736,0.31856042970213827,2.9828893387280864e-05
WQZ,,,,,,,,3,4,-1,7,0.00594732370433305,0.3146417445482866,2.6611769439741754e-07
WWT,AK,Newtok Airport,60.939098358154,-164.64100646973,Newtok,99559.0,#71de56,20,19,1,39,0.03313508920985556,0.3200185946229598,4.3052985341448185e-05
YAK,AK,Yakutat Airport,59.5032997131,-139.660003662,Yakutat,99689.0,#71de56,5,5,0,10,0.008496176720475786,0.3309248768000755,0.0
ZNC,AK,Nyac Airport,60.9807014465,-159.994003296,Nyac,99642.0,#71de56,3,3,0,6,0.005097706032285472,0.31740343056278425,0.0
PAQ,AK,"Warren ""Bud"" Woods Palmer Municipal Airport",61.594898,-149.08901,Palmer,99645.0,#71de56,9,2,7,11,0.009345794392523366,0.2982653397552444,8.762798261926785e-07
UXM,,,,,,,,1,1,0,2,0.0016992353440951572,0.24462349768589672,0.0
ANP,MD,Lee Airport,38.942902,-76.568398,Edgewater,21037.0,#b31800,2,2,0,4,0.0033984706881903144,0.24663709656148616,3.0597781059530163e-06
AOH,OH,Lima Allen County Airport,40.706902,-84.026703,Lima,45804.0,#ff6539,0,3,-3,3,0.002548853016142736,0.0,0.0
AOO,PA,Altoona Blair County Airport,40.29639816,-78.31999969,Martinsburg,16662.0,#a2d39a,5,5,0,10,0.008496176720475786,0.29017734769768655,1.180391767299337e-05
MTP,NY,Montauk Airport,41.0765,-71.920797,Montauk,11954.0,#08601f,7,8,-1,15,0.01274426508071368,0.3136067388096409,5.938266238843479e-05
APA,CO,Centennial Airport,39.57009888,-104.848999,Englewood,80112.0,#7fac00,9,11,-2,20,0.016992353440951572,0.32080175423048,0.0008608249010942929
EGE,CO,Eagle County Regional Airport,39.64260101,-106.9179993,Gypsum,81637.0,#7fac00,20,25,-5,45,0.038232795242141036,0.3451945143447792,0.0016794919067022655
HWD,CA,Hayward Executive Airport,37.659198761,-122.122001648,Hayward,94545.0,#c479ff,3,2,1,5,0.004248088360237893,0.3087138459168205,8.916718445894165e-07
MKC,MO,Charles B. Wheeler Downtown Airport,39.1231994628906,-94.5927963256836,Kansas City,64116.0,#045494,36,31,5,67,0.05692438402718777,0.3680943961317793,0.00048025631392312684
SAC,CA,Sacramento Executive Airport,38.5125007629,-121.492996216,Sacramento,95822.0,#c479ff,1,1,0,2,0.0016992353440951572,0.23959354228454177,1.0261082995743702e-06
APC,CA,Napa County Airport,38.2132,-122.280998,Napa,94558.0,#c479ff,4,4,0,8,0.006796941376380629,0.31558860504948516,2.2760948372101462e-06
STS,CA,Charles M. Schulz Sonoma County Airport,38.50899887,-122.8130035,Windsor,95492.0,#c479ff,9,7,2,16,0.013593882752761258,0.3279239945526702,6.765300306989915e-05
APF,FL,Naples Municipal Airport,26.1525993347,-81.7752990723,Naples,34104.0,#ad007d,6,7,-1,13,0.011045029736618521,0.2938360702099858,0.000980726722740451
CGF,OH,Cuyahoga County Airport,41.5651016235,-81.4863967896,Cleveland,44143.0,#ff6539,28,26,2,54,0.045879354290569246,0.3290558313710195,0.003174488736240229
VRB,FL,Vero Beach Regional Airport,27.6556,-80.417901,Vero Beach,32960.0,#ad007d,1,1,0,2,0.0016992353440951572,0.22422513033556538,4.48139529384282e-07
APN,MI,Alpena County Regional Airport,45.0780983,-83.56030273,Alpena,49707.0,#cd0033,4,4,0,8,0.006796941376380629,0.31558860504948516,2.8148425598782652e-05
GLR,MI,Gaylord Regional Airport,45.0135002136,-84.7035980225,Gaylord,49735.0,#cd0033,3,4,-1,7,0.00594732370433305,0.2777280017424362,2.4044847393128764e-06
ARA,LA,Acadiana Regional Airport,30.0378,-91.883904,New Iberia,70560.0,#e67700,3,2,1,5,0.004248088360237893,0.30100486067148086,8.440874492580129e-07
PIB,MS,Hattiesburg Laurel Regional Airport,31.4671001434326,-89.3370971679688,Moselle,39459.0,#de3f20,12,11,1,23,0.01954120645709431,0.31740343056278425,0.00010582360275739764
ARC,AK,Arctic Village Airport,68.1147,-145.578995,Arctic Village,99722.0,#71de56,6,5,1,11,0.009345794392523366,0.29049887384472,0.00042079945212582866
CIK,AK,Chalkyitsik Airport,66.6449966431,-143.740005493,Chalkyitsik,99788.0,#71de56,6,4,2,10,0.008496176720475786,0.29049887384472,1.3503196318378464e-06
ART,NY,Watertown International Airport,43.9919013977051,-76.0216979980469,Dexter,13634.0,#08601f,3,3,0,6,0.005097706032285472,0.3146417445482866,1.7201523972456644e-08
ASE,CO,Aspen-Pitkin Co/Sardy Field,39.22320175,-106.8690033,Aspen,81611.0,#7fac00,12,18,-6,30,0.02548853016142736,0.3462201830899436,0.00018108565714367042
SPS,TX,Sheppard Air Force Base-Wichita Falls Municipal Airport,33.9888,-98.491898,Wichita Falls,76306.0,#ff846c,10,5,5,15,0.01274426508071368,0.3279239945526702,5.394897766256704e-05
VNY,CA,Van Nuys Airport,34.209800720215,-118.48999786377,Van Nuys,91406.0,#c479ff,27,23,4,50,0.04248088360237893,0.34440096373709006,0.0030434288367440342
ASH,NH,Boire Field,42.7817001343,-71.5148010254,Nashua,3063.0,#7b3b72,1,1,0,2,0.0016992353440951572,0.26931200168963515,0.0
ASN,AL,Talladega Municipal Airport,33.5699005127,-86.0509033203,Eastaboga,36260.0,#8d4b4c,8,1,7,9,0.0076465590484282074,0.3098998033627185,3.227922247148894e-06
ATW,WI,Appleton International Airport,44.2580986023,-88.5190963745,Appleton,54914.0,#945500,31,17,14,48,0.04078164825828377,0.3436110532698032,8.615439545411129e-05
AZO,MI,Kalamazoo Battle Creek International Airport,42.2349014282227,-85.5521011352539,Portage,49002.0,#cd0033,21,17,4,38,0.03228547153780799,0.3498001783120211,0.0001485816906899051
BIL,MT,Billings Logan International Airport,45.8077011108398,-108.542999267578,Billings,59105.0,#ff9d2f,57,57,0,114,0.09685641461342397,0.3721436957343645,0.008136652324628603
BMI,IL,Central Illinois Regional Airport at Bloomington-Normal,40.47710037,-88.91590118,Bloomington,61704.0,#852b8a,19,16,3,35,0.029736618521665252,0.3412629139536086,5.70255423522353e-05
BQK,GA,Brunswick Golden Isles Airport,31.2588005065918,-81.4664993286133,Brunswick,31525.0,#019f43,4,2,2,6,0.005097706032285472,0.30771741038129086,6.020533390359826e-07
BZN,MT,Gallatin Field,45.77750015,-111.1529999,Belgrade,59714.0,#ff9d2f,45,56,-11,101,0.08581138487680544,0.37440233294517644,0.00043087822624939643
CID,IA,The Eastern Iowa Airport,41.8847007751465,-91.7108001708984,Swisher,52338.0,#3d4b9f,57,66,-9,123,0.10450297366185217,0.3738684258750229,0.0007648047196823741
CPS,IL,St Louis Downtown Airport,38.5707015991,-90.1561965942,East Saint Louis,62206.0,#852b8a,23,18,5,41,0.034834324553950725,0.3541712038431068,2.5778033282872846e-05
DHN,AL,Dothan Regional Airport,31.3213005065918,-85.4496002197266,Dothan,36303.0,#8d4b4c,7,12,-5,19,0.016142735768903994,0.31788449062729285,2.2569563962832848e-05
DLH,MN,Duluth International Airport,46.8420982361,-92.1936035156,Duluth,55811.0,#02b4aa,17,17,0,34,0.02888700084961767,0.33807251275932926,3.062178697384438e-05
EFD,TX,Ellington Airport,29.6072998047,-95.1587982178,Houston,77034.0,#ff846c,11,8,3,19,0.016142735768903994,0.33536966248143246,6.265379844235534e-07
ELM,NY,Elmira Corning Regional Airport,42.1599006652832,-76.8916015625,Horseheads,14845.0,#08601f,18,17,1,35,0.029736618521665252,0.3391658908730399,0.00010576585961075255
ERI,PA,Erie International Tom Ridge Field,42.0831270134,-80.1738667488,Erie,16505.0,#a2d39a,10,11,-1,21,0.01784197111299915,0.3290558313710195,2.2851205919996143e-06
EWN,NC,Coastal Carolina Regional Airport,35.0730018616,-77.0429000854,New Bern,28560.0,#ff588c,16,19,-3,35,0.029736618521665252,0.3266981104608845,0.00016809143494635767
FCA,MT,Glacier Park International Airport,48.3105010986328,-114.255996704102,Kalispell,59901.0,#ff9d2f,15,17,-2,32,0.027187765505522515,0.3502675132195856,1.0540668197452775e-05
FSM,AR,Fort Smith Regional Airport,35.3366012573242,-94.3674011230469,Fort Smith,72903.0,#aabc00,8,3,5,11,0.009345794392523366,0.3256835200557265,6.469646350539181e-07
GGG,TX,East Texas Regional Airport,32.3839988708496,-94.7115020751953,Longview,75603.0,#ff846c,5,5,0,10,0.008496176720475786,0.3199209684501035,8.329366759368468e-06
GLH,MS,Mid Delta Regional Airport,33.4828987121582,-90.9856033325195,Metcalfe,38760.0,#de3f20,5,4,1,9,0.0076465590484282074,0.3115570215625191,1.3756284704663498e-06
GNV,FL,Gainesville Regional Airport,29.6900997162,-82.2717971802,Gainesville,32609.0,#ad007d,37,33,4,70,0.059473237043330504,0.3374198631207977,0.00023482375006520523
GTR,MS,Golden Triangle Regional Airport,33.4502983093,-88.5914001465,Columbus,39701.0,#de3f20,8,8,0,16,0.013593882752761258,0.3123922950787725,6.028331460024451e-06
HDN,CO,Yampa Valley Airport,40.48120117,-107.2180023,Hayden,81639.0,#7fac00,21,24,-3,45,0.038232795242141036,0.35453040384700446,8.474795565686978e-05
HTS,WV,Tri-State/Milton J. Ferguson Field,38.36669922,-82.55799866,Huntington,25704.0,#ffad64,28,30,-2,58,0.04927782497875956,0.3313431072920819,0.00013327096929069516
ILG,DE,New Castle Airport,39.67869949,-75.60649872,New Castle,19720.0,#acd44a,16,14,2,30,0.02548853016142736,0.3398253190471287,5.7721808402649745e-05
LWB,WV,Greenbrier Valley Airport,37.8582992554,-80.3994979858,Lewisburg,24901.0,#ffad64,10,10,0,20,0.016992353440951572,0.3374198631207977,5.398160343711504e-05
MCN,GA,Middle Georgia Regional Airport,32.692798614502,-83.6492004394531,Macon,31216.0,#019f43,9,3,6,12,0.010195412064570943,0.31865722715874784,2.205678616910191e-06
MEI,MS,Key Field,32.3325996398926,-88.7518997192383,Meridian,39307.0,#de3f20,3,5,-2,8,0.006796941376380629,0.31295163669932535,2.0429880818318313e-06
MLI,IL,Quad City International Airport,41.4485015869141,-90.5074996948242,Milan,61264.0,#852b8a,31,31,0,62,0.052676295666949875,0.35694381707945516,0.00019529905857873828
MLU,LA,Monroe Regional Airport,32.5108985900879,-92.0376968383789,Monroe,71203.0,#e67700,21,20,1,41,0.034834324553950725,0.3234734529856383,0.00033955538383042053
MSL,AL,Northwest Alabama Regional Airport,34.74530029,-87.61019897,Muscle Shoals,35661.0,#8d4b4c,5,5,0,10,0.008496176720475786,0.3139823157423471,2.8910981048001302e-06
MSO,MT,Missoula International Airport,46.91630173,-114.0910034,Missoula,59808.0,#ff9d2f,29,30,-1,59,0.05012744265080714,0.35297910958580925,0.0001433606685983354
MTJ,CO,Montrose Regional Airport,38.5097999573,-107.893997192,Montrose,81401.0,#7fac00,24,26,-2,50,0.04248088360237893,0.3495669781931464,1.8402015667481836e-05
NPA,FL,Pensacola Naval Air Station/Forrest Sherman Field,30.35269928,-87.31860352,Pensacola,32508.0,#ad007d,2,1,1,3,0.002548853016142736,0.3157786614210898,4.1854211488258766e-07
PUB,CO,Pueblo Memorial Airport,38.2891006469727,-104.497001647949,Pueblo,81001.0,#7fac00,16,13,3,29,0.02463891248937978,0.3382906240578836,6.385603185160816e-05
RAP,SD,Rapid City Regional Airport,44.0452995300293,-103.056999206543,Rapid City,57703.0,#ce96be,25,31,-6,56,0.0475785896346644,0.3534549830062148,0.00023910006395843584
RBW,SC,Lowcountry Regional Airport,32.9210014343,-80.6406021118,Walterboro,29488.0,#4e6500,4,3,1,7,0.00594732370433305,0.31692382429115723,1.994491765108474e-05
RST,MN,Rochester International Airport,43.9082984924316,-92.5,Rochester,55902.0,#02b4aa,21,14,7,35,0.029736618521665252,0.3447406096579353,5.532905345887498e-05
STP,MN,St Paul Downtown Holman Field,44.9345016479492,-93.0599975585938,Saint Paul,55107.0,#02b4aa,5,7,-2,12,0.010195412064570943,0.3279239945526702,1.5747486132438934e-05
STX,,,,,,,,10,10,0,20,0.016992353440951572,0.31673238736920545,0.0003177353797535769
TCL,AL,Tuscaloosa Regional Airport,33.220600128174,-87.611396789551,Tuscaloosa,35401.0,#8d4b4c,15,20,-5,35,0.029736618521665252,0.3252794462095035,6.009233060151388e-05
TLH,FL,Tallahassee Regional Airport,30.3964996337891,-84.3503036499023,Tallahassee,32310.0,#ad007d,56,54,2,110,0.09345794392523364,0.3606261810795871,0.00041728740925183497
TUP,MS,Tupelo Regional Airport,34.2681007385254,-88.7698974609375,Tupelo,38801.0,#de3f20,15,12,3,27,0.022939677145284623,0.31904500595662894,0.00010329582062892195
TVC,MI,Cherry Capital Airport,44.7414016723633,-85.5821990966797,Traverse City,49686.0,#cd0033,17,19,-2,36,0.03058623619371283,0.35061883469723815,0.00024298532346632724
TWF,ID,Joslin Field Magic Valley Regional Airport,42.4818,-114.487999,Twin Falls,83301.0,#8bd976,13,7,6,20,0.016992353440951572,0.3399354731213741,0.0008679261649668419
VLD,GA,Valdosta Regional Airport,30.7824993133545,-83.2767028808594,Valdosta,31601.0,#019f43,3,3,0,6,0.005097706032285472,0.30898672203283417,1.146223376463164e-06
VPS,FL,Destin-Ft Walton Beach Airport,30.4832,-86.525398,Eglin Afb,32542.0,#ad007d,23,26,-3,49,0.041631265930331354,0.3287463744763132,5.288878463719497e-05
ATY,SD,Watertown Regional Airport,44.91400146,-97.15470123,Watertown,57201.0,#ce96be,4,4,0,8,0.006796941376380629,0.3215887563874392,2.0044822827645823e-06
PIR,SD,Pierre Regional Airport,44.38270187,-100.2860031,Pierre,57501.0,#ce96be,6,7,-1,13,0.011045029736618521,0.32011628039665424,8.504531266325698e-06
AUG,ME,Augusta State Airport,44.3205986023,-69.7973022461,Augusta,4330.0,#009bd7,3,4,-1,7,0.00594732370433305,0.3142645893255736,3.173996606378648e-05
AUO,AL,Auburn University Regional Airport,32.615101,-85.433998,Auburn,36830.0,#8d4b4c,5,1,4,6,0.005097706032285472,0.27546649187797195,6.459467111489132e-07
BFL,CA,Meadows Field,35.43360138,-119.0569992,Bakersfield,93308.0,#c479ff,18,15,3,33,0.028037383177570093,0.33239332316305525,0.0008804584012704401
BFM,AL,Mobile Downtown Airport,30.6268005371,-88.0680999756,Mobile,36615.0,#8d4b4c,13,14,-1,27,0.022939677145284623,0.31875408345879613,2.3796975696760315e-05
BWD,TX,Brownwood Regional Airport,31.7936000824,-98.9564971924,Early,76802.0,#ff846c,2,3,-1,5,0.004248088360237893,0.296830154140798,0.0
LIH,HI,Lihue Airport,21.9759998321533,-159.339004516602,Lihue,96766.0,#e40087,30,21,9,51,0.04333050127442651,0.35926719238761196,3.461303064906826e-05
LSE,WI,La Crosse Municipal Airport,43.879002,-91.256699,La Crosse,54603.0,#945500,13,11,2,24,0.020390824129141887,0.3338748597833299,8.84882619828444e-06
LWS,ID,Lewiston Nez Perce County Airport,46.3745002746582,-117.014999389648,Lewiston,83501.0,#8bd976,24,22,2,46,0.03908241291418862,0.3393854157215014,0.0009996721339191991
OZA,TX,Ozona Municipal Airport,30.735300064087,-101.20300292969,Ozona,76943.0,#ff846c,1,0,1,1,0.0008496176720475786,0.29694449820927105,0.0
PVU,UT,Provo Municipal Airport,40.219200134277,-111.72299957275,Provo,84601.0,#8e8953,12,13,-1,25,0.021240441801189464,0.3281292035605254,1.436306772850227e-05
SAF,NM,Santa Fe Municipal Airport,35.617099762,-106.088996887,Santa Fe,87507.0,#ff7abf,10,10,0,20,0.016992353440951572,0.3311338599871927,8.379678642477557e-05
SBP,CA,San Luis County Regional Airport,35.2368011475,-120.641998291,San Luis Obispo,93401.0,#c479ff,13,15,-2,28,0.0237892948173322,0.3212931784863478,2.8679187622318965e-05
SDM,CA,Brown Field Municipal Airport,32.572299957275,-116.98000335693,San Ysidro,92173.0,#c479ff,11,10,1,21,0.01784197111299915,0.32267721063982746,6.151036408569439e-05
SUU,CA,Travis Air Force Base,38.262699127197,-121.92700195312,Travis Afb,94535.0,#c479ff,7,8,-1,15,0.01274426508071368,0.3307161572309805,0.0013745272556427263
VCT,TX,Victoria Regional Airport,28.8526000976562,-96.9185028076172,Victoria,77904.0,#ff846c,5,4,1,9,0.0076465590484282074,0.3090777879691834,3.884706401506972e-07
DPA,IL,Dupage Airport,41.90779877,-88.24859619,West Chicago,60185.0,#852b8a,4,8,-4,12,0.010195412064570943,0.28489566274910055,8.301629106323202e-06
DTO,,,,,,,,5,4,1,9,0.0076465590484282074,0.30916890760007054,6.11828262494285e-06
RWI,NC,Rocky Mount Wilson Regional Airport,35.8563003540039,-77.8918991088867,Elm City,27822.0,#ff588c,4,7,-3,11,0.009345794392523366,0.2780225171207421,0.0008280422953546011
AWM,AR,West Memphis Municipal Airport,35.1351013184,-90.2343978882,West Memphis,72301.0,#aabc00,1,1,0,2,0.0016992353440951572,0.2714731904166294,5.329428410736152e-06
AZ6,,,,,,,,1,1,0,2,0.0016992353440951572,0.22659916477515973,0.0
BIS,ND,Bismarck Municipal Airport,46.7727012634277,-100.746002197266,Bismarck,58504.0,#008654,16,18,-2,34,0.02888700084961767,0.3399354731213741,9.518674542864209e-05
BLI,WA,Bellingham International Airport,48.7928009033203,-122.53800201416,Bellingham,98226.0,#77471b,21,23,-2,44,0.03738317757009346,0.34921776043271374,0.011878781525035903
CPR,WY,Casper-Natrona County International Airport,42.908001,-106.463997,Casper,82604.0,#db9d83,21,16,5,37,0.03143585386576041,0.336769728509775,9.761338041085206e-05
CSM,OK,Clinton Sherman Airport,35.3398017883,-99.2005004883,Burns Flat,73624.0,#007667,1,1,0,2,0.0016992353440951572,0.2606763446630473,8.157682472093224e-08
EUG,OR,Mahlon Sweet Field,44.1245994567871,-123.21199798584,Eugene,97402.0,#ad0040,32,31,1,63,0.05352591333899745,0.3521494071791267,0.0007721907247845885
GRI,NE,Central Nebraska Regional Airport,40.9674987792969,-98.3096008300781,Grand Island,68801.0,#b2a5ff,12,15,-3,27,0.022939677145284623,0.3234734529856383,4.812818531680771e-05
GTF,MT,Great Falls International Airport,47.48199844,-111.3710022,Great Falls,59404.0,#ff9d2f,23,32,-9,55,0.04672897196261682,0.34564961587984155,0.000492966842589398
IDA,ID,Idaho Falls Regional Airport,43.514599,-112.070999,Idaho Falls,83402.0,#8bd976,17,16,1,33,0.028037383177570093,0.3438363719932588,3.424007638508476e-05
MIE,IN,Delaware County Johnson Field,40.2422981262207,-85.3958969116211,Muncie,47303.0,#d9c837,8,8,0,16,0.013593882752761258,0.31388833719827575,0.0008045233017869691
MOT,ND,Minot International Airport,48.2593994140625,-101.279998779297,Minot,58703.0,#008654,13,14,-1,27,0.022939677145284623,0.3295728895598489,3.147496068452984e-05
NYL,,,,,,,,9,13,-4,22,0.01869158878504673,0.3200185946229598,5.936549425948796e-05
OGD,UT,Ogden Hinckley Airport,41.195899963379,-112.0120010376,Ogden,84405.0,#8e8953,8,9,-1,17,0.014443500424808835,0.31778816199376947,2.4021476327564264e-05
PSC,WA,Tri Cities Airport,46.2647018432617,-119.119003295898,Pasco,99301.0,#77471b,18,17,1,35,0.029736618521665252,0.34048731642189584,0.00015080777729659396
